Name,Address,Latitude,Longitude
씨티마트,서울 강남구 도산대로 49길 8,37.5233511349545,127.037425209409
태광통신,"서울 성북구 동소문로 248, 105동 상가 1호",37.6034576002933,127.024541211803
인터뱅세계주류,서울 강남구 언주로 647,37.5143480794392,127.034946065028
베스토아,서울 강남구 역삼로 166,37.4950520768848,127.037244965742
아셈마트,서울 강남구 영동대로112길 10,37.5149806292251,127.061009562777
부흥복권,서울 송파구 중대로 226,37.5015224268582,127.128334305015
나눔 중앙마트,서울 마포구 백범로 108,37.5471021480065,126.943170565054
행복슈퍼,서울 성북구 동소문로 49,37.5910211712363,127.011144274361
현대복권방,서울 동대문구 답십리로 9,37.5784693244422,127.043528549832
동성당,서울 종로구 청계천로 261,37.5699362775586,127.006560911525
종로수퍼,서울 종로구 돈화문로10길 14,37.5725116224408,126.992437955446
행운충전소,서울 중구 퇴계로83길 10-18,37.5661020580702,127.019229307271
마포뉴제일점,"서울 마포구 월드컵북로1길 50, 1층 우측",37.5540898033344,126.918890584706
신당백석점,서울 중구 동호로 193-22,37.5544618459737,127.009187858143
중곡본점,서울 광진구 능동로 337-1,37.5598112448962,127.080686665042
가락시영점,서울 송파구 가락로 74,37.499981558058,127.104433587879
대청수성점,서울 강남구 개포로109길 34,37.4942045850869,127.077648338611
팔달중앙점,경기 수원시 팔달구 정조로 751-11,37.2751477338801,127.015828406704
충정로점,서울 서대문구 경기대로 48,37.5634776878328,126.962582343949
광희금호점,"서울 중구 마른내로 155, 1동 101호",37.5653089182578,127.005264386724
을지로3가점,서울 중구 충무로 53-1,37.565992110561,126.99246430851
역삼2,서울 강남구 역삼로14길 7,37.4940869098918,127.035516726449
GS25 서초타운점,서울 서초구 서초대로52길 23,37.4927684540547,127.014870982049
잠실2점,"서울 송파구 오금로11길 51,101호",37.5155971464397,127.112848901841
수원장안점,경기 수원시 장안구 경수대로 1079,37.3091123666347,126.994096337292
숙대점,서울 용산구 청파로47가길 7-11,37.5445550752626,126.967315424575
고마트(방화점),서울 강서구 방화동로 63,37.5661531780611,126.812301698726
농가마트,서울 양천구 중앙로 264,37.519981328417,126.853279287149
선서적,서울 금천구 독산로74길 6,37.4686620625239,126.902633431412
데스콤,서울 영등포구 영중로 46,37.5204542773544,126.90519531649
반도서점,"서울 금천구 독산로 136, 105호",37.4595006193821,126.905231291478
우리식품,서울 광진구 아차산로 589,37.545980152264,127.104740902266
진성미니슈퍼,"서울 마포구 월드컵로 205, 상가 104호",37.5650296025517,126.901572081455
원스탑,서울 송파구 백제고분로7길 39,37.5109675018169,127.083235272667
통일복권방,"서울 종로구 종로 19, 110동 1호",37.5708444878121,126.979923668151
수정식품,서울 중구 을지로 199-2,37.5670067821773,127.000230796133
삼성포토랜드,인천 강화군 북문길 6,37.7475855683292,126.484708548931
SK 복권방,인천 미추홀구 용정공원로 33,37.4520149469249,126.64506286268
갤럭시슈퍼,인천 남동구 남동대로921번길 1,37.4646148879869,126.707732652113
시티라이프,인천 부평구 주부토로 265,37.51867469936,126.726933903978
대한빌딩,인천 부평구 경원대로 1382,37.4910264823385,126.722313447803
신일사,인천 중구 참외전로 244-2,37.4685671926117,126.641604897687
라이프마트,"인천 중구 연안부두로53번길 36, 5호",37.4522187238946,126.603934106976
alwaysmart,경기 고양시 일산동구 백마로 501,37.6630813146395,126.803780610476
대박,경기 구리시 안골로103번길 46,37.5994316095684,127.141570281902
금호마트,경기 구리시 검배로29번길 8,37.5990234826696,127.143195397608
씨스페이스 동두천중앙,경기 동두천시 어수로 100-1,37.9022196099864,127.053674655383
베스토아,"경기 성남시 분당구 내정로166번길 43, 104호",37.3703570347084,127.122641244112
IGA마트 분당차병원점,경기 성남시 분당구 야탑로69번길 3,37.4100867548579,127.126367619815
행운의집,경기 이천시 남천로 2,37.2779833872711,127.437631107758
훼미리마트,경기 포천시 중앙로 148,37.8989405986732,127.205037006598
OK마트,서울 강동구 진황도로27길 14,37.5389421468469,127.131844568571
행운의집,서울 강동구 구천면로 222,37.5406273825658,127.129395103817
안목마트,서울 강북구 한천로 1024,37.6394836102233,127.028070704254
에덴 복권사무써비스,서울 강북구 덕릉로 5,37.6340076611468,127.014145008905
대박나는집,"서울 노원구 덕릉로 718, 상가 104호",37.6614032808638,127.076025133121
소비자마트,서울 도봉구 덕릉로 357,37.645518128805,127.048600871045
씨스페이스 응암역점,서울 은평구 연서로 9,37.6000995302827,126.91556845327
대박.com,서울 은평구 역말로 137-1,37.6114706042032,126.922048577393
갤러리마트,서울 중랑구 사가정로 387,37.580926444595,127.087733678026
은혜,서울 영등포구 도림로 206,37.4969340590015,126.903590753985
소리창고,서울 강서구 강서로 306,37.5528876532177,126.836744922471
코사마트역전점,경기 평택시 중앙2로 1,36.9919922360475,127.087226482564
에스마트평택점,경기 평택시 평택로76번길 3,36.9938049748704,127.085074740951
즉석복권방,경기 수원시 영통구 산남로 2,37.2638799865883,127.047161130963
아성슈퍼,경기 부천시 부흥로 202,37.4958734564738,126.765009703696
24시수퍼,경기 군포시 번영로 497,37.3583199121192,126.932291369357
복권방(당동점),경기 군포시 당동로 8,37.350946295911,126.94371051389
진평양행,강원 강릉시 임영로 107,37.7512348337798,128.89409118199
행운유통,강원 원주시 남원로 656,37.3411170151608,127.95394040889
복권나라,강원 원주시 평원로 23,37.348928526007,127.952670718954
프로토원주점(복권나라),강원 원주시 북원로 2706,37.3850827811024,127.947916389722
전우사,강원 춘천시 금강로 44,37.880601427523,127.727087801119
드림복권전문점,강원 춘천시 춘주로 195,37.8603675215016,127.727886469418
코만도,대전 대덕구 석봉로43번길 1,36.4476618864553,127.426538715273
베스토아(용전2호),"대전 동구 동서대로 1689, 터미널 W158",36.3503349793975,127.436711042049
플러스원,대전 서구 계백로 1390-1,36.3111606588887,127.376319328016
아이마트,대전 서구 둔산로 230,36.3510422761057,127.399503941088
대일수퍼,대전 서구 월평중로24번길 48,36.3565158674934,127.366512878436
가나,대전 중구 선화로 8,36.3247950312081,127.410866452411
서산터미널복권방,충남 서산시 안견로 190,36.781880649023,126.458147061807
시민슈퍼복권방,"충남 서산시 문화로 51, 102호",36.7856712007341,126.447930264676
"나눔로또,토토",충남 서산시 무학로 1742,36.7576354630369,126.428592329295
21시수퍼,충남 아산시 온천대로 1528-1,36.7804651335912,127.007303265209
복권나라,충북 제천시 청풍호로 52,37.1265267151665,128.202751056928
SUN마트 예대점,"충북 청주시 흥덕구 송화로150번길 15-2, 102호",36.6647866561298,127.451048410768
영화마을(현대점),"충북 청주시 청원구 주성로 194, 102호",36.6717938617349,127.487706222629
피시복권방,충북 청주시 흥덕구 1순환로513번길 4,36.6465143574374,127.465217384327
부영상회,충북 충주시 칠금중앙로 38,36.9817805755984,127.919090879295
토토양행,경북 경주시 태종로 801-4,35.8411664570841,129.21592582985
GMART,경북 구미시 구미중앙로 57-3,36.1300209053001,128.32904238643
오천웰빙마트,경북 포항시 남구 오천읍 해병로269번길 27,35.9709962866545,129.414453917556
복권나라,경북 포항시 북구 장량로140번길 9,36.0807952248086,129.396033290327
오케이할인마트,대구 남구 대명로 234-2,35.8411123187796,128.582394579216
대림서점,대구 남구 중앙대로 158,35.8473324453321,128.590832008845
이솝비디오대여점,대구 남구 명덕로 228-30,35.8561425251091,128.595918588748
이마트24달서송현점,대구 달서구 송현로 32,35.8219904455022,128.548568392285
LA24시편의점,"대구 달서구 달구벌대로 1005, 103호",35.8533978739491,128.477120118727
씨스페이스(수성3가점),대구 수성구 명덕로 442-3,35.8539222064152,128.618528042958
동인마트,대구 중구 태평로 266,35.8786084974756,128.581297678773
기장수퍼,부산 기장군 기장읍 차성동로 69,35.243881875159,129.216517117269
백경슈퍼(백경편의점),부산 남구 용소로 40,35.1337385126443,129.100844430012
천하명당복권방,부산 동구 초량중로 78,35.1186104337132,129.039314751256
동해수퍼,부산 동래구 충렬대로 175,35.2040677072955,129.079318961141
우리들마트,"부산 동래구 온천장로119번길 20, 10호",35.221634159317,129.08381668177
아트슈퍼,부산 부산진구 가야대로 490,35.1529182611219,129.025590951996
조이풀,부산 남구 용호로198번길 23,35.1146562831074,129.109657477984
스위트초이스(엄궁점),"부산 사상구 사상로 300, 상가 401동 13호",35.1716317464552,128.983687212587
대학도수퍼(대학로슈퍼),부산 사상구 가야대로 366-1,35.1509779970809,129.01254945522
해피마트,부산 사하구 낙동대로 521-1,35.1106823812813,128.96526059919
복수퍼,"경남 김해시 가야로 17, 111호",35.2702906346753,128.862394230191
위드미 마산만복점,경남 창원시 마산회원구 합성옛길 152,35.2382163542789,128.583950985853
씨스페이스 사천큰마트점,경남 사천시 사천읍 평화2길 22,35.0830587139136,128.087024991475
벼락부자복권방,경남 양산시 중앙로 232,35.3504491902906,129.041195906941
대도레코드사,경남 진주시 진양호로 334,35.182492502423,128.067499828321
인정24시편의점,경남 진주시 진주대로 910,35.1815267583672,128.09003341063
은정수퍼,경남 창원시 성산구 원이대로883번길 2,35.2079246153911,128.694603197652
도계할인마트,경남 창원시 의창구 원이대로55번길 8-4,35.2576011416846,128.63513107679
조은복권방,"울산 남구 수암로 128-1, 27호",35.5275044304043,129.321005270066
영화유통,울산 남구 신정로 19,35.5336719925462,129.322573930961
우리들덕신점,울산 울주군 온산읍 덕신로 273,35.4342261020598,129.311374981835
우리들공경점,울산 중구 옥교3길 106,35.5532647774499,129.332155369264
남양마트,"광주 광산구 월계로 137, 101호",35.2136322206711,126.840897087531
줄리아나마트,광주 동구 충장로 73,35.1488374539961,126.915719017227
황금수퍼,광주 북구 동문대로 102,35.1722459616755,126.92479906063
올더웨이5호점,광주 북구 서방로 11,35.1735373834257,126.914412235774
오픈마트,광주 북구 서암대로 111,35.1709411918726,126.896813683521
중흥마트,"광주 서구 풍암순환로 8, 101호",35.1255856028587,126.875323124776
제일마트,전남 나주시 중앙로 21,35.0311592204691,126.719692716232
드림복권,전남 목포시 산정로 159-3,34.8028681528203,126.392334913969
골든박스,"전남 목포시 청호로219번길 51, 713동 101-3호",34.8059998010241,126.366497489758
로또마트,"전남 목포시 통일대로75번길 10, 109호",34.8013387293635,126.432023791677
복권나라,"전남 목포시 당가두로14번길 47-1, 103호",34.8076026143263,126.437162186115
금강안경원,전북 군산시 구영6길 96,35.9879874584622,126.710794866016
시영24시편의점,전북 익산시 부송로 52,35.9562212045694,126.991630853025
프랜드마트(두산점),전북 전주시 덕진구 매봉로 10,35.839132840944,127.142075712186
프랜드마트노송점,"전북 전주시 완산구 봉곡2길 13, 102호",35.8131469021288,127.095494025328
대박복권방,전북 전주시 덕진구 붓내3길 18,35.8664278209129,127.123288015584
안경매니져(삼천점),전북 전주시 완산구 거마평로 57,35.797671400985,127.116652693122
주공홈마트,"전북 전주시 완산구 장승배기로 11, 102호",35.792788808523,127.114585246834
고양점,경기 고양시 덕양구 혜음로 35,37.703901437943,126.901910595562
역곡역점,경기 부천시 부일로 731,37.485892989705,126.810932616513
분당우성점,"경기 성남시 분당구 돌마로 481,119호",37.3777537592365,127.132871482333
의정부시청점,경기 의정부시 의정로22번길 38,37.7347382063478,127.037421427737
중산동신점,경기 고양시 일산동구 탄중로431번길 3,37.6871123234458,126.778467123723
창원소답점,"경남 창원시 의창구 읍성로 70, 5호",35.2646913315201,128.625527880291
뉴왜관점,경북 칠곡군 왜관읍 중앙로 236-1,35.9960258064849,128.399303644424
칠성주현점,"대구 북구 호암로 20, 126동 107호",35.8826629400748,128.592024742914
대전터미널점,대전 동구 동서대로1695번길 18,36.3505225046906,127.437698678825
월평중앙점,대전 서구 월평로 47,36.3564046356411,127.362325821274
유성본점,대전 유성구 온천로 2,36.355733652484,127.338085633141
부곡쌍용점,"부산 금정구 수림로 25, 103호",35.2391189060288,129.088705688439
감천스마일점,부산 사하구 감천로 45,35.0910376247598,128.997672414336
복음병원점,부산 서구 감천로 255,35.0815606600002,129.016024501339
민락비치점,부산 수영구 광안해변로 279,35.1560849413448,129.124199251853
부암화승점,부산 부산진구 백양순환로 89,35.1701999457399,129.036884194529
서면문화로점,부산 부산진구 서면문화로 6,35.1582886945541,129.058077420074
가야동의점,부산 부산진구 가야대로 594,35.1545163650801,129.036860316637
신도시점,부산 해운대구 좌동순환로 301,35.1691749763491,129.183269565611
하단스마일점,부산 사하구 낙동남로1423번길 3,35.10667856915,128.967161533532
미아대양점,서울 강북구 도봉로 132,37.6207624056416,127.028707276977
구로영림점,서울 구로구 가마산로27길 14,37.4977293058869,126.891852633222
시흥본점,서울 금천구 금하로 633,37.4549438058901,126.901552759864
영등포구청점,서울 영등포구 당산로 109,37.5246263135253,126.8960288077
문래남부점,서울 영등포구 선유로 40,37.5173904864584,126.889131430811
대림우성점,서울 영등포구 도림로 188-1,37.4959048141873,126.902026776632
서오능점,서울 은평구 서오릉로 217,37.6144745945993,126.909553016243
울산신정미소점,울산 남구 수암로105번길 18,35.5302339639423,129.320193703389
울산석영점,울산 북구 염포로 591-2,35.5388986902504,129.387200437254
작전1호점,인천 계양구 주부토로 361,37.5265776834199,126.729615453594
신기촌하나점,인천 미추홀구 신기길 2,37.4481002448092,126.676486982567
부개점,인천 부평구 부흥로 420,37.4973503432189,126.738615139922
심곡삼성점,인천 서구 승학로 243,37.5442217804822,126.672473261192
청주북문점,충북 청주시 상당구 상당로81번길 9-1,36.6354729856291,127.489929248269
GS25남포제일점,부산 중구 보수대로 14,35.0983028547947,129.02545641644
구미제일점,경북 구미시 공단동 264-8,36.1016780366828,128.383010388082
울산대점,울산 남구 대학로94번길 8,35.5429337508177,129.260741279712
구미공단점,경북 구미시 1공단로7길 86-1,36.109946867803,128.377677078264
부산광장점,부산 동구 중앙대로180번길 12,35.1128646701418,129.040186415988
울산중앙점,울산 남구 돋질로 157,35.5408972871371,129.322524798746
신평점,부산 사하구 신산로 195,35.0898508784169,128.976562300965
괘법희망,부산 사상구 사상로212번길 12,35.1641361486059,128.984456240834
평리대로점,대구 서구 서대구로 186,35.8746207099882,128.555194039317
창원기산점,경남 창원시 성산구 중앙대로 95,35.2236256200965,128.678930499329
포항신흥점,경북 포항시 북구 불종로 31,36.0388671342024,129.363335673036
동래중앙점,부산 동래구 명륜로 111,35.2037534093529,129.082724368532
동대구터미널점,대구 동구 동부로30길 7,35.8764072557411,128.629186409997
중동점,대구 수성구 수성로 212,35.8444079197062,128.612907994329
GS25마산산호점,경남 창원시 마산합포구 합포로 243,35.2188448465102,128.586905692178
구미금오점,경북 구미시 금오시장로 16,36.1260414275585,128.341252646959
에덴점,부산 사하구 낙동대로549번길 17,35.112408592304,128.962848161224
하양금락점,경북 경산시 하양읍 대학로 1522,35.9140071738007,128.821348507077
부산고속점,부산 동래구 아시아드대로228번길 8,35.2038722389513,129.067541311648
뉴동구신천점,대구 동구 동부로22길 79,35.8694481756187,128.627474773746
대명점,대구 남구 대명로 27-1,35.8385433592151,128.560460788439
구의2호점,서울 광진구 뚝섬로 742,37.5342254126939,127.091432175278
논현11호,서울 강남구 선릉로 131길 4,37.5179716472254,127.04057757446
도선카페점,서울 성동구 왕십리로 326,37.5627268703824,127.033894304026
한남대 육교점,대전 대덕구 한남로88번길 5,36.3508314914172,127.418641860121
혜화점,서울 종로구 창경궁로 273,37.585795938765,127.000590551814
명일점,서울 강동구 양재대로 1655,37.5533530158301,127.143932300441
벽제점,경기 고양시 덕양구 호국로 1436,37.6809362204729,126.895860694153
부평점,인천 부평구 시장로30번길 4,37.4932637305219,126.725885928485
응암2호점,서울 은평구 응암로 340,37.6014709973596,126.922636551293
종로3가역점,서울 종로구 돈화문로11길 9,37.5724086147591,126.990828728595
구리교문점,경기 구리시 경춘로172번길 2,37.6002394569322,127.134306943835
신당점,서울 중구 다산로36길 53,37.5615295383478,127.017847531193
유성한빛점,대전 유성구 어은로57번길 3,36.3630449109035,127.356341614454
부산용호2호점,부산 남구 용호로178번길 3,35.1162592379138,129.110781729273
인천교대점,인천 계양구 계양대로 175,37.5395513177428,126.722191524805
인천송도3호점,인천 연수구 대암로22번길 3,37.4179488201072,126.652138205725
서원탑훼미리합성점,경남 창원시 마산회원구 3∙15대로 709,35.2359021122214,128.580267577269
토토복권,대구 서구 달서로12길 9,35.8674803232966,128.572060084804
나인투화이브양재점,서울 서초구 동산로 18,37.4695432963504,127.041711437174
7복권방,경기 수원시 권선구 매송고색로 875,37.2587084285595,126.996689520134
복권명당,경기 안산시 상록구 광덕산2로 25,37.3354253476662,126.846060520269
형제당복권방,광주 광산구 월계로 58,35.2111623651712,126.832691207768
소라복권방,전북 익산시 인북로 327-4,35.9575536451891,126.960611884186
성진,경기 성남시 수정구 모란로 91,37.4412034005456,127.125751300814
왕24시,충남 서산시 읍내6로 23,36.7795364721882,126.451218051463
로또명당 해미점,충남 서산시 해미면 남문2로 108,36.7134821631912,126.544214492603
유성코아복권슈퍼,대전 유성구 문화원로6번길 103,36.3574773958514,127.338096516684
가자세계주류,서울 종로구 수표로 112-1,37.5713089179633,126.98936997593
금화당안경,서울 동대문구 천호대로83길 52,37.5643526997264,127.06575079141
나라통신,경기 오산시 오산로 200,37.1446540715467,127.068712622452
서대문창천,서울 서대문구 신촌로 3,37.5587151297654,126.927569513949
TOTO,강원 강릉시 주문진읍 주문로 55,37.8888394953763,128.825610679739
프로토용강점,강원 강릉시 토성로 122,37.7539496462449,128.890218833243
형제상회,경기 부천시 부일로 752,37.4862897669917,126.813295771966
복권백화점,서울 은평구 연서로29길 7-2,37.6186767605045,126.919179197454
우성약국,전북 익산시 평동로7길 79,35.9389404500703,126.950316150133
상도터널점,"서울 동작구 양녕로 280-1, 101호",37.5042628196748,126.950123964573
임학시장점,인천 계양구 계양산로 193,37.5476717777079,126.73728912937
비산 1점,경기 안양시 동안구 평촌대로 390,37.4053590786342,126.950122281741
무역센타점,"서울 강남구 테헤란로87길 25, 13호",37.5094488804302,127.058220443241
신림성화점,서울 관악구 남부순환로 1578,37.48351417723,126.925933989055
고척점,서울 구로구 경인로47길 10,37.5001643217148,126.867164896914
노원구점,서울 노원구 노해로75길 14-26,37.6545816567332,127.058887724656
상계역점,서울 노원구 한글비석로24길 63,37.6631826027378,127.07350701962
노원두타점,서울 노원구 한글비석로 245,37.6492607976891,127.076361085876
서울역점,서울 용산구 한강대로 401,37.5540501787837,126.972330875495
면목점,서울 중랑구 면목로 341,37.5821763494967,127.088154488573
천하제일복권방,"충북 청주시 서원구 매봉로 208, 1동 105호",36.6276871651131,127.476142872306
천하명당복권방,경기 안성시 중앙로 424,37.0065007860089,127.273701054686
길동방,서울 강동구 진황도로49길 16,37.534393752483,127.14086762484
비디오뱅크,서울 강동구 암사길 18,37.5512704115579,127.131448695989
행운의시작복권전문점,강원 삼척시 사대안길 5,37.4442676656265,129.165441743941
프로토남포점(행운남포),부산 중구 국제시장2길 5,35.0997065582699,129.028315809427
성내해뜨는 복권방,"서울 강동구 양재대로89길 52, 102호",37.5271747681402,127.132767250997
강남슈퍼,경기 의정부시 의정로 193,37.7500866807865,127.03409690768
베스트올 수성점,전북 정읍시 수성2로 28,35.5817670520118,126.854448910252
굴러들어온 복권,"서울 강남구 논현로72길 20, 102호",37.4958026662855,127.041164578983
미래통신,서울 성동구 동일로 83,37.5403600987734,127.062631429258
복권전문점,서울 강북구 솔샘로64길 43,37.615548589453,127.02861964458
오목미니슈퍼,서울 양천구 신목로 119,37.5250690925454,126.876243682609
로또복권방(석수점),"경기 안양시 만안구 경수대로 1265, 103호",37.4201364505239,126.908905767545
찬스센타백운점,인천 부평구 신촌로7번길 3,37.4848116843115,126.708756503362
찬스센터(천하명당복권방),"인천 남동구 남동대로370번길 114, 101호",37.4134146612369,126.711835791134
대박명당,울산 남구 중앙로 154,35.5348493102649,129.314517002599
복권마을,서울 광진구 뚝섬로 493,37.5362775337859,127.065208385049
복권나라(순천북부점),전남 순천시 중앙로 145,34.958593479064,127.48406840726
복권왕국,전남 여수시 화산로 134,34.7772331518698,127.651129119343
또또복권방,전북 익산시 고봉로32길 3,35.9598215855702,126.97168964717
복권매니아,전북 전주시 덕진구 기린대로 523,35.8449435251779,127.121788185178
복권천국덕포점(동아비디오),부산 사상구 사상로309번길 39,35.1724284397111,128.981195890715
우리복권방,경기 구리시 경춘로 171,37.6008478200609,127.134373264853
오렌지데이연산점,부산 연제구 월드컵대로 176,35.1877866370265,129.077635331856
복권마트,경기 부천시 소사로 253,37.4808686430278,126.795323692627
복권명당(안양점),경기 안양시 만안구 예술공원로 67,37.4142456184973,126.916891643319
희망복권,경기 평택시 평택1로20번길 39,36.9942098130425,127.089271737688
주택복권방,강원 원주시 우산초교길 29,37.3673587552496,127.937934674673
마산부림마트,경남 창원시 마산합포구 3·15대로 345,35.2057759353485,128.572617959982
역전복권방,강원 춘천시 영서로 2259,37.8637635556113,127.723198431902
교대법원점,"서울 서초구 서초중앙로 142, 102호",37.4945671753609,127.013791411049
두산오거리점,대구 수성구 무학로 119,35.8303102604298,128.621589384424
시흥행운점,"경기 시흥시 군자로 474, 101호",37.3472302720453,126.783157413527
신설2호점,서울 동대문구 천호대로 7-10,37.5753932388711,127.02487172271
면목3호점,서울 중랑구 답십리로77길 3,37.5718169747296,127.081400537978
창동점,서울 도봉구 덕릉로63가길 42,37.6432591750754,127.03807221148
풍납점,서울 송파구 토성로 40,37.5297762056845,127.114639231055
훼미리점,"서울 송파구 중대로 24, 상가 제2동 118호",37.4881292540693,127.111066039437
신정역점,서울 양천구 오목로 151,37.5249062717537,126.854133368117
금정역점,경기 군포시 군포로735번길 3,37.3708586980216,126.943270249473
대전도마점,대전 서구 도솔로 133,36.3225346262072,127.373563623436
보경복권,울산 북구 명촌6길 7,35.557789757613,129.360304185923
돈벼락맞는곳(고현점),경남 거제시 고현로9길 10,34.8871944506552,128.622396963456
토토플러스복권방,경남 김해시 삼안로 239,35.249377240227,128.910304307778
슈퍼복권나라(삼방),"경남 김해시 율하1로 110, 101호",35.1727964064639,128.815633824603
오렌지24시마트(화봉),울산 북구 명촌4길 10,35.5580815786833,129.358064295281
삼거리슈퍼,경남 김해시 분성로336번길 30,35.2309719858058,128.882967267787
대림통상(복권마트),"울산 중구 신기14길 1, 102호",35.5526113788849,129.296866432288
행운을주는사람들(고성),경남 고성군 고성읍 중앙로 41,34.9742067930371,128.324789779548
천하명당,경남 진주시 진양호로 564,35.1937476359381,128.086989063351
수성공인중개사사무소,경남 김해시 우암로 39,35.2341960139876,128.860418259074
플러스로터리,경남 양산시 물금읍 범어로 28,35.3310736286373,129.011779839293
노다지복권방(창녕),경남 창녕군 창녕읍 명덕로 49,35.5429811441375,128.494859342837
천하명당,경남 통영시 항남1길 7-12,34.8427139312087,128.423196307641
참조은복권,"울산 중구 성안로 167, 102호",35.5754374730212,129.316229470851
로또명당,대구 남구 현충로 203,35.8509282629972,128.581209903378
복권일번지,경북 상주시 중앙로 256,36.4156934708281,128.166444436938
복권방,대구 달서구 성지로 66,35.8550043366928,128.521264464717
복권판매점,경북 경산시 하양읍 하양로 65,35.9111589857359,128.815785803006
복권천국,대구 동구 화랑로 419,35.8766973902854,128.669852079744
복권명당,대구 서구 국채보상로 419,35.8718416097763,128.576974191526
행복편의점,"경북 경주시 외동읍 산업로 1762, 상가동 102호",35.6718750064903,129.336308032048
왕대박복권방,대구 달성군 다사읍 달구벌대로 814,35.8620222798811,128.460335704883
돈벼락복권방,대구 북구 동변로 82-1,35.9207021160842,128.603794623645
복권명방후포점,경북 울진군 후포면 후포삼율로 115-1,36.6804513881291,129.442214762146
왕대박복권방,대구 북구 태전로 27-1,35.9228631410606,128.544562791621
영남통상,경북 성주군 성주읍 성주로 3228,35.9180279922513,128.286895872202
복권명당,대구 서구 팔달로 84,35.8898748397722,128.55924065538
왕대박복권방,대구 북구 칠성남로 143,35.8776948087102,128.596162644696
황금복권,경북 영주시 구성로 379-1,36.8249637267948,128.620702023628
로또명당,"대구 남구 명덕로 322, 101호",35.8548387371786,128.605137990592
위드미월배역점,대구 달서구 월배로 152,35.8161357713865,128.530782406543
대운마트,"대구 동구 동촌로 190, 상가 101동 106호",35.8808977043024,128.661454485258
복권천국(문현),부산 남구 수영로 38,35.1364186029131,129.071828641443
황금복권방,부산 사상구 새벽로 202번길 5,35.1591262754131,128.984338683581
돈벼락복권방(부산서면점),부산 부산진구 서전로 18-1,35.1575879422678,129.061675365786
슈퍼복권나라(주례),부산 사상구 학감대로 166,35.1456853614981,128.98868196943
돈벼락맞는곳(해운대),"부산 해운대구 양운로 55, 상가 102호",35.1681697165142,129.176218799492
돈벼락맞는곳(마트월드점),"부산 사상구 낙동대로 910, 상가A동 160호",35.1413742954462,128.970557089716
복권천국(대연),부산 남구 못골로 48-2,35.1357282251514,129.087742891082
돈벼락맞는곳(기장),부산 기장군 기장읍 읍내로 109,35.2452378493168,129.216331930168
one by one(나들가게),부산 중구 흑교로 18,35.1011343329317,129.025311883853
돈벼락맞는곳,부산 사하구 장평로 134,35.0779599401339,128.973007452447
돈벼락복권,강원 태백시 번영로 356,37.1715376055433,128.992119431229
복권사랑,경기 양주시 평화로 1444,37.8194771901356,127.047156226242
천하명당 미아점,서울 강북구 솔샘로 283,37.6186535304349,127.023966947502
천하명당,서울 중구 퇴계로 322,37.5640130769694,127.007464524322
노다지,서울 중구 다산로44길 15,37.5650537013473,127.017810793551
천하명당 미마트점,서울 성북구 동소문로2길 13,37.5881306410682,127.007240599705
천하명당(답십리점),서울 동대문구 전농로 105-1,37.5744318290656,127.057351229018
광산마트,서울 강북구 한천로 1078-1,37.6426092255051,127.023489921007
행운복권방,경기 포천시 소홀읍 송우리 127-6,37.8288621438774,127.147507150439
가판 창동역점,서울 도봉구 마들로11길 77,37.6532084846758,127.04768378525
신흥2020,서울 도봉구 도봉로 733,37.669923827815,127.043304550233
왕대박복권,강원 속초시 번영로 142,38.2113548828553,128.589367591603
대박의터,강원 춘천시 동내면 영서로 1786,37.8362738856845,127.760134997623
복권나라,강원 태백시 황지로 215-1,37.1765124863348,128.987315403505
로또복권방,경기 포천시 중앙로119번길 10,37.8974529110707,127.202200969494
토토복권방,서울 중구 세종대로18길 10,37.5637093579091,126.97761953445
복권전문점(장위점),서울 성북구 돌곶이로27길 48,37.6111813349096,127.053044950313
NICE(둔촌),"서울 강동구 성내로6길 40, 4호",37.5282188433311,127.121995754389
상신복권방,서울 성동구 마장로 230-1,37.5660292918005,127.035429063349
복조리,서울 성동구 광나루로11길 17,37.5495461370188,127.066277577143
복권나라,서울 광진구 동일로24길 68,37.5428683762457,127.06865605313
미래상사,서울 송파구 오금로 534,37.4927539411439,127.148113485016
프로토포이점,서울 강남구 논현로 36,37.474264768655,127.048557705644
노다지복권방(성내),서울 강동구 천호대로170길 47,37.5332682051547,127.132635269698
프로토용인점(복권명당),경기 용인시 처인구 용문로 142,37.236225659474,127.201601720404
엘도라도,서울 광진구 용마산로 47,37.5578057118259,127.087644089209
행복을 드립니다.,경기 광주시 곤지암읍 광여로 713,37.3762286076386,127.404526916162
주택복권방,경기 용인시 수지구 풍덕천로 144-1,37.3238820289351,127.097479916042
바이복,서울 강남구 일원로5길 19,37.4913691994619,127.082316257623
복권나라,경기 고양시 일산서구 원일로 114,37.6851786597286,126.774574081945
대박나라,서울 마포구 망원로 86,37.5574855132449,126.906276336192
행운복권방,서울 은평구 서오릉로 10,37.6023055358317,126.926797414378
복권왕국,인천 부평구 경인로 931,37.4876930262483,126.723000932506
복권왕국,인천 계양구 계산천동로 3,37.5393141405592,126.72332807752
노다지복권방,인천 연수구 앵고개로 256,37.4078330922493,126.672019301485
대박천하마트,인천 부평구 굴포로 48,37.5115550103661,126.726281656042
대박복권방,경기 고양시 일산동구 장항로 329,37.6442979550014,126.763509103905
Q복권방,경기 부천시 옥산로 152,37.5071847128011,126.780444213848
미래전산,"서울 종로구 통일로 262, 104호",37.5755075085658,126.957025042288
티켓몰,경기 김포시 사우중로 17,37.6171190052619,126.716916062708
용꿈돼지꿈복권방,서울 마포구 만리재로1길 5,37.544708604031,126.952234682412
이마트24 일산식사점,경기 고양시 일산동구 견달산로 249,37.6881708698199,126.819593884437
왕대박,서울 은평구 갈현로 7,37.5986806134193,126.910030981908
J-복권방,서울 종로구 종로 227-3,37.5713517088857,127.002851216628
천하명당복권방,"서울 종로구 창신길 20, 102호",37.5723822385791,127.011010638393
복권명당,경기 광명시 광명로832번길 15,37.4730459914097,126.853240398055
서정 천하명당,경기 평택시 송탄로 162-1,37.0582571003921,127.059336509846
종합복권,경기 시흥시 마유로 336,37.3457443131004,126.735588934187
복권명당,경기 안산시 단원구 선부로 258,37.3411565185841,126.823654356188
광장하이퍼,"서울 구로구 경인로53길 15, C동 마2열",37.5020321024364,126.876117278882
서하네,서울 구로구 개봉로20길 66,37.4933772358687,126.858033757981
드림복권전문점,경기 평택시 평남로 651,36.991936717261,127.106961289742
9to5 공항점,서울 강서구 송정로 61,37.5602624197847,126.809848237274
케이케이물류,경기 수원시 팔달구 동말로 60,37.2786996990285,127.000746004899
대박복권방,경기 안산시 단원구 신길중앙로1길 40,37.3361179773193,126.762285379174
드림파크(복권나라),"서울 영등포구 여의대방로 45, 상가 10호",37.4964574262108,126.912018178173
행운나라복권방,경기 안양시 만안구 충훈로 95,37.4074530545052,126.897957602889
복권세계,서울 영등포구 대림로29길 27,37.4947079124777,126.896731937478
잉크와복권,서울 강서구 가로공원로76가길 12,37.5330832340553,126.839624054263
복권나라(상도),"서울 동작구 상도로 178, 101호",37.5042981054139,126.938750545876
호미복권방,서울 관악구 인헌4길 9,37.4745362698345,126.966268562071
드림메드,경기 안산시 상록구 월피로 56,37.3334090861145,126.850895285405
토토판매점,서울 영등포구 여의대방로39길 3,37.5030583068916,126.92097066051
천하명당우만점,경기 수원시 팔달구 월드컵로369번길 4,37.2902761879585,127.030179595698
예인기획,경기 화성시 향남읍 3.1만세로 1127,37.1339043177304,126.909773131042
천하명당복권방,경기 수원시 권선구 매송고색로 720-1,37.2512115187635,126.983320405657
복권천국,경기 광명시 기아로 6,37.4363594210818,126.880380160222
주택복권방(안양점),경기 안양시 만안구 장내로 106,37.3959799517278,126.920025381559
하당복권방,전남 목포시 옥암로 46,34.8039271171213,126.429447105924
대박복권방,광주 동구 남문로 561,35.1210533644682,126.932851860216
남악복권방,전남 목포시 남악1로52번길 2,34.809685398969,126.445807316831
뉴팡팡복권,전북 전주시 덕진구 쪽구름로 117,35.8737899651333,127.072396932196
복권나라,전북 군산시 대야면번영로 889,35.9467637131264,126.809931248756
제일복권,제주 제주시 서광로 253-1,33.5000641677329,126.523623009499
천하명당복권방,제주 제주시 가령로 39,33.5005550767722,126.536770214613
복권세상,광주 광산구 무진대로231번길 28,35.1632711959951,126.806280620966
대박토토,광주 북구 군왕로 196,35.1783499013732,126.934990204461
미래유통,전남 목포시 영산로 627,34.8212564939731,126.421781172595
노다지복권방진월점,광주 남구 서문대로 649,35.1175014273025,126.898170415119
운천점(복권나라),광주 서구 운천로 153,35.1463213437122,126.856647541021
부안복권방,전북 부안군 부안읍 번영로 139,35.726229124893,126.735646857375
제일복권방,전북 군산시 미원로 39,35.9769938945798,126.709726874863
Let'sgo복권방(동산점),전북 전주시 덕진구 쪽구름로 57-1,35.8706100383473,127.076527322932
노다지복권방(대전중리),대전 대덕구 계족산로 19-1,36.3620744633287,127.433617089275
노다지복권방,대전 대덕구 신탄진로 211,36.3992220467304,127.42289388197
노다지복권방,대전 동구 계족로 393,36.3467060143993,127.432133257948
대박마트,충북 청주시 상당구 원봉로 52,36.614485948554,127.508850092209
아로마포미,대전 서구 둔지로 15,36.3512343207339,127.375807242723
노다지복권방,"대전 중구 서문로 119, A동2호",36.3191398317912,127.405333632822
팡팡복권방,충북 진천군 광혜원면 장기길 102,36.9900369472003,127.445326626503
잉크와복권방,충남 천안시 동남구 차돌로 84,36.8020765258975,127.139416497888
천안역아시아마트,충남 천안시 동남구 대흥로 237,36.8091194484109,127.14776086644
토토원,충북 청주시 청원구 공항로 95,36.6657049445956,127.486302488627
행운복권방,충북 청주시 흥덕구 복대로 207,36.635075993569,127.440583570919
잉크션,대전 서구 도산로 310,36.3334974993343,127.387506206103
논산복권방,충남 논산시 계백로 1016,36.2040553726109,127.089730277061
하나로슈퍼,충남 보령시 주공로 65,36.3426774086383,126.608067362193
복권닷컴,경기 성남시 수정구 탄리로 79,37.4430029100373,127.13560880044
대박복권방,경기 성남시 중원구 금상로57번길 5,37.4405786495421,127.162141354196
스포츠베팅샵,서울 서초구 동산로 48,37.4713508485798,127.044337605924
인생역전(고덕),서울 강동구 아리수로66길 29,37.5610057611426,127.155140348013
부자나라,인천 계양구 효서로112번길 3-1,37.5274576599409,126.708286913299
행운복권방,인천 미추홀구 길파로35번길 2,37.4690910552982,126.679599605279
로또복권방,인천 미추홀구 인하로 385,37.4483266687292,126.691171830821
하이로또,"서울 은평구 응암로 282, 상가 104호",37.5965264933991,126.919865588756
천하명당(관악),서울 관악구 보라매로2길 11,37.4900873752338,126.928691496109
복드림,서울 영등포구 양평로 117,37.5373935823638,126.894498887379
행운하우스,전북 전주시 덕진구 송천4길 56-9,35.8620688422344,127.114992891373
현텔레콤,전북 전주시 덕진구 두간로 6,35.8651515011874,127.11507584563
Let'sgo복권유통,전북 전주시 덕진구 무삼지로 29,35.828201772411,127.164662953864
금집복권,광주 북구 첨단연신로108번길 146,35.2083892370153,126.864690861561
Let'sgo복권방(터미널복권방),전북 정읍시 연지8길 6,35.572332165993,126.844958110122
중앙복권방,전북 전주시 완산구 공북로 95,35.826470180688,127.142138907778
복권왕국,전남 여수시 여수산단로 48,34.7885631932854,127.664332351724
행복복권방(팔용),경남 창원시 의창구 팔용로 399,35.2528639002586,128.610572162676
1등복권방(서동),울산 중구 북부순환도로 879,35.5809225108029,129.346155278419
토토전문점(삼계),경남 김해시 해반천로144번길 40,35.2612281941247,128.87161640038
복권명당(신기점),대구 동구 율하동로24길 49,35.869379870395,128.707661159953
토토닷컴,대구 달성군 논공중앙로 166,35.7294722136357,128.453260998179
대길통상,경북 경산시 공단로 478,35.8741770978106,128.819238843387
복권나라,경북 경산시 경안로 79-1,35.8147175260228,128.738646493999
복권명당,대구 북구 태암남로 37,35.9253373269416,128.551570114654
왕대박복권방,경북 문경시 중앙로 15,36.5881011716474,128.192949198212
금화복권방,울산 남구 신정로 151-1,35.5450898330381,129.318106421879
진주상봉점,경남 진주시 창렬로114번길 1,35.197803853557,128.070008383109
양재구룡점,서울 서초구 논현로5길 18,37.4721120164136,127.048918743533
행운복권마트,인천 부평구 수변로52번길 27,37.4911346469586,126.742087879201
내동마트24시복권방,경기 부천시 평천로751번길 18,37.5158904211689,126.77382827412
천하제일 복권명당 유성점,대전 유성구 유성대로654번길 111,36.3509475313278,127.33513410825
올웨이복권방편의점,경기 안양시 만안구 박달로 528-1,37.4024476351868,126.911392048715
행운복권마트,경기 안산시 상록구 감골로 141,37.2942769504388,126.857278694079
행운천하명당,충남 서천군 서천읍 충절로 34,36.0753693911809,126.68639508013
명품복권방,전남 목포시 섶나루길 122,34.8105770399452,126.418961563973
삼호복권방,전남 영암군 삼호읍 신항로 76,34.7460539284447,126.379794256525
천하복권방,울산 동구 전하로 29,35.5124277173074,129.427491902497
화정복권방,울산 동구 대학길 174,35.4968563619628,129.426797229787
해피데이복권방,경남 의령군 충익로 39,35.3194897920299,128.261859357358
스포츠복권방(양산),경남 양산시 물금읍 황산로 675,35.3308680531576,129.006697099851
한우리마트,"울산 남구 두왕로 78번길 5-2, 나동 101호",35.5103877006517,129.309792364021
영화복권,경남 창원시 진해구 안청남로 14,35.1010601812409,128.804480868583
노다지,서울 동대문구 한천로 55,37.5669101962131,127.061880899304
제일수퍼,서울 서대문구 증가로 143,37.5774629851947,126.921690536742
노다지복권방,경기 김포시 중봉1로 81,37.6264368053535,126.705214192839
행운복권IGA,인천 부평구 평천로 102-1,37.5208629999148,126.703628260872
대박복권방,인천 서구 가정로 120-1,37.4954352386092,126.671807676749
복권명당,충북 청주시 흥덕구 봉명로 199,36.6399788681154,127.463776435373
복권명당,충남 공주시 번영1로 41,36.4718573097719,127.133096848142
충청복권전문점,충남 천안시 서북구 성환2로 108,36.9169574702619,127.132852232982
오뚜기복권방,충남 아산시 온천대로 1104,36.7845082080216,126.960972296599
푸른복권방,전북 군산시 부곡4길 5,35.9615065600662,126.691528280663
금터복권방,광주 광산구 손재로 110번길 27,35.176228111225,126.798548570499
복권천국,전남 목포시 비파로 29,34.8014014876272,126.427679890882
종합복권판매소,전북 군산시 팔마로 145,35.9738068145883,126.717179849557
동해복권전문점,강원 동해시 발한로 226-1,37.5497172102582,129.108605317071
노다지복권,강원 삼척시 중앙시장길 48-49,37.4423897760073,129.167160507782
부산영도점,부산 영도구 남항로 31,35.0890937824399,129.040053072476
오남한국점,경기 남양주시 오남읍 진건오남로 735-10,37.693986465442,127.208146761073
뉴둔산월드점,대전 서구 대덕대로233번길 20,36.353764662122,127.378256240237
마산삼계점,경남 창원시 마산회원구 삼계3길 5,35.2316685199101,128.504096872845
웨이스탑,서울 동대문구 전농로 129,37.5765011502586,127.057521604998
꽃사슴복권마트,"강원 강릉시 경강로 2113, 2호",37.7559978879081,128.897649883701
종합복권나라,강원 원주시 남원로 617-2,37.338453301705,127.951356468924
북문복권방,경기 수원시 장안구 정조로 927-1,37.2902970908823,127.012826577136
현대마트,서울 강남구 일원로 45,37.489904628125,127.08151340546
천하명당복권방,경북 포항시 남구 중섬로 26,36.0137760122153,129.347444440873
드림마트,서울 영등포구 신길로54길 1,37.5120091134584,126.910191899901
송가상사,"경기 안산시 단원구 중앙대로 462, 131-3호",37.3268021694734,126.791753700398
현대,경기 동두천시 삼육사로 1005,37.8993382449715,127.061690422984
대박복권방,경기 연천군 온골로 57-1,38.026060905974,127.067723655248
복권천국,대구 달서구 성서로 377,35.8512164420623,128.506819049475
대한사,대구 북구 노원로10길 141,35.8908459538407,128.575159312062
다올DC마트,경남 김해시 활천로 192,35.2420735975141,128.900751662665
블루25복권명당대원점,경남 창원시 성산구 두대로 57,35.2318200512437,128.650576877267
노다지복권방(거창),경남 거창군 거창읍 중앙로 108-1,35.6860757114022,127.91029465576
토토복권방(병영),울산 중구 병영로 11,35.5703002829566,129.345956439897
행운복권방(동상),경남 김해시 구지로124번길 2-6,35.2387904021865,128.876585972862
씨티,"경기 고양시 일산동구 고양대로 1034, 106호",37.6718563905242,126.807106085362
보물섬복권방,경기 안산시 상록구 도매시장로 39,37.3103222240118,126.859304012068
제이테크복권방,경기 군포시 금산로 14,37.3638634957356,126.941069630484
성원,서울 구로구 구로동로26길 65,37.4900607450084,126.887791309057
프로또마트,서울 구로구 고척로 156,37.5031959057642,126.851193430944
돈주리복권방,경기 수원시 영통구 봉영로1482번길 17-4,37.2452677469252,127.066844663483
토토판매점,충북 청주시 서원구 모충로153번길 3-1,36.6292627099696,127.47975710032
행운복권방,충북 청주시 상당구 단재로 119,36.6187733770649,127.497943058392
복권명당,"충북 청주시 상당구 월평로 204, 101호",36.6088235863008,127.506272501493
"한남마트,왔다복권",충남 천안시 서북구 서부16길 9,36.8231102791593,127.137680216852
행운을찾는사람들,전북 전주시 덕진구 아중로 148,35.8257081414072,127.165798329374
38복권방,전북 전주시 완산구 용리로 118,35.7981811783044,127.122608329426
천하명당복권전문점,광주 광산구 사암로216번길 10-9,35.1629319462159,126.809133346065
진로베스토아,전북 익산시 동서로 359,35.9502858364905,126.973290584521
영유통,전북 군산시 미룡로 45,35.943966178249,126.689860969165
썬마트(충주연암점),충북 충주시 연원로 27-3,36.9887824339739,127.931119904664
전인정보통신,경기 남양주시 진건오남로 658,37.6911753045199,127.214497657641
소공점,서울 중구 남대문로7길 11-10,37.5636924609329,126.98093758207
안산광장점,경기 안산시 단원구 선부광장1로 82,37.3355798449483,126.812677549048
현대파크점,울산 남구 삼산로156번길 14,35.5352749284108,129.324712776144
복권닷컴,강원 양양군 양양읍 양양로 62,38.0755550691101,128.622336973872
왕대박복권전문점,강원 동해시 중앙로 234,37.5214846431653,129.11508128475
동양마트,서울 노원구 상계로5길 12,37.6573543256891,127.064264260882
역전복권방,경기 양주시 덕정5길 18,37.8448197688778,127.064181074026
황금알복권방,경기 의정부시 태평로 102-1,37.7416048934645,127.051838470811
복권명가,경기 성남시 중원구 금상로 70,37.441040025023,127.163604465887
21세기복권나라,"경기 성남시 중원구 희망로 388, 101호",37.4398795870243,127.159800428247
둔전행운복권방,경기 용인시 처인구 포곡읍 포곡로 110,37.2692357529358,127.217656299628
당첨희망복권점,경기 이천시 영창로 147,37.2820978547911,127.438971651106
주택복권,경기 이천시 영창로 187,37.2814211323982,127.443432373994
럭키로또,"경기 이천시 이섭대천로 1226, 103호",37.2796911369841,127.44705315329
복권나라,서울 성동구 용답중앙15길 12-1,37.5644524282652,127.053856513732
폰스토아,서울 송파구 백제고분로48길 12,37.5113199513542,127.114483073804
용꿈돼지꿈,서울 송파구 성내천로6길 3,37.5037477440614,127.135894003952
슈퍼복권나라(사직),부산 동래구 여고북로 10,35.201384671561,129.065980282167
경동플러스,부산 해운대구 세실로 30,35.1686044730957,129.179287469768
나들가게24(황금어장),부산 중구 중앙대로 96,35.106275296425,129.036575578554
슈퍼복권나라(수정),부산 동구 고관로 95-1,35.1276494882248,129.045230106434
명신복권방,부산 영도구 동삼로 57,35.0785568743847,129.070256681867
황금돼지복권방,부산 연제구 중앙대로 1204,35.1946753468704,129.080278953067
복권나라,대구 서구 와룡로 318,35.8610590664925,128.538369547614
행운복권방,경북 구미시 야은로 763,36.1238669059265,128.362662344404
로또명당,대구 수성구 수성로 303,35.8528028588453,128.613184857758
평화수퍼,경북 경주시 안강읍 안강중앙로 219,35.9924356400962,129.224091438333
왕대박복권방(고령점),경북 고령군 대가야읍 중앙로 15-1,35.7297956502509,128.269654007467
복권나라,대구 달성군 논공중앙로 106,35.7268184405189,128.44766013498
행운복권방감포점,경북 경주시 감포읍 감포로 142,35.806696158207,129.502508205416
복권천국,경북 경산시 원효로 24,35.8237422209577,128.740160823992
진성공인중개사/복권  병행사용,대구 동구 동촌로 36,35.8900129353691,128.646800521623
모닝마트,대구 남구 성당로18길 45-10,35.8455357025704,128.564905704088
복권명당신암,"대구 동구 효동로 101, 101호",35.8851888169787,128.642246533194
덕하복권명당,울산 울주군 청량면 덕하로 238,35.4919477080637,129.305313257119
모닝마트(장생포점),울산 남구 장생포고래로 183,35.5019661686492,129.374670945582
아이러브마트복권방,울산 중구 유곡로 19-1,35.5563630715553,129.307228459279
셀피아복권방,울산 북구 무룡로 29,35.5810884350649,129.363572948849
모닝마트(학성점),울산 중구 학성로 189,35.5571212509632,129.331631778258
대방상회,경남 창원시 성산구 대암로 123,35.2145647683487,128.709345975543
25시슈퍼,경남 창원시 마산회원구 봉양로 75-5,35.2212938648958,128.595262219939
코리아슈퍼,"경남 통영시 안개로 42, 103호",34.8590943802257,128.431191363519
행운복권방(부원),경남 김해시 가락로 35,35.2297139827293,128.882083485426
사랑정보통신,울산 울주군 온산읍 온덕2길 20,35.4350382718089,129.310672317525
24시편의점,"경기 고양시 덕양구 은빛로 53, 101호",37.6380299706501,126.833626984659
컴나라복권나라(필텍시스템),경기 고양시 덕양구 토당로 130,37.6264232770631,126.818102469984
황금어장,서울 은평구 연서로 333,37.6250824356937,126.928560811424
오렌지25시,"경기 고양시 일산서구 고봉로 291, 109호",37.6852396705203,126.77723707326
그린슈퍼,경기 부천시 심곡로 98,37.4756295095503,126.77399227868
가판,"서울 종로구 대학로 110-1, 혜화역2번출구 앞",37.5809447907231,127.002226652494
우리식품점,서울 종로구 종로 393,37.5748784673834,127.020856702547
인천네트워크,"인천 남동구 논고개로 333, 101호",37.419804490806,126.729926946975
한가람마트,서울 용산구 우사단로 3,37.5306932454506,126.996647668772
가판점,서울 마포구 대흥동 2-6,37.5564028173465,126.946109329326
금도깨비복권전문점,경기 김포시 하성면 월하로 721,37.7098041947948,126.634737601742
용꿈돼지꿈,인천 부평구 동암남로 11,37.4709934776498,126.704830357919
노다지복권방,경기 안산시 단원구 와동로 17,37.3323848989228,126.827194045077
365복권잔치,"경기 군포시 고산로 166, 101동 217호",37.3487542794896,126.953700808057
까치복권방,경기 시흥시 중심상가로 326,37.336693513552,126.748239784703
용꿈돼지꿈복권방,"경기 시흥시 하중로 235, 103호",37.3908243401202,126.806573092145
휴먼복권방,"경기 안산시 단원구 당곡로 9, 103호",37.3179886232861,126.832937878709
잉크랑복권이랑,경기 군포시 오금로134번안길 25,37.3601234495181,126.94296305887
복권방,경기 평택시 평택로 154,36.9993302629524,127.079709739147
천복당,경기 오산시 대원로 52,37.1462247905801,127.074255406884
잉크와복권,경기 광명시 시청로 69,37.4827264888289,126.865635384919
스포츠토토,서울 구로구 시흥대로 577-11,37.4844882862976,126.901864172583
한마음복권,서울 관악구 관악로 211,37.4841859042134,126.954466715324
행운나라,서울 관악구 양지길 2-1,37.4721818177052,126.933021165611
행운샵,대전 대덕구 대화로 44,36.3678386483847,127.414932915642
썬마트(하복대점),충북 청주시 흥덕구 진재로23번길 25,36.632588427906,127.4281248183
복권나라(풍향),광주 북구 필문대로 79,35.1627606122826,126.928071534971
역전휴게마트,광주 북구 무등로 240,35.1639126758883,126.909684860467
부업동아리,전북 전주시 덕진구 송천중앙로 99,35.856009958031,127.119991593657
황금복권마트,전북 전주시 덕진구 솔내로 148,35.8633496891296,127.12734031058
상동복권방,전남 목포시 상리로9번길 21,34.8136804850026,126.41479250561
보물섬,"전남 목포시 산정로 274, 상가 110호",34.8115910228166,126.386547745336
동산마트,전북 익산시 동서로43길 34,35.954011863993,126.975976990704
도깨비복권방(장미동),전북 군산시 월명로 372,35.9771727855446,126.715824455584
골드복권방,전북 군산시 중앙로 130,35.9848811597959,126.715725849953
복권왕국,대구 북구 칠곡중앙대로 632,35.9516594418086,128.553693118688
왕대박상주점,경북 상주시 왕산로 206,36.4147742210394,128.162982548905
왕대박복권방,대구 달서구 달서대로 713,35.8631542191448,128.49128164517
코리아마트,대구 달성군 세천로6길 1,35.872809235122,128.470810624369
대박복권방,대구 북구 옥산로 53,35.885531706055,128.581455376842
운수대통 복권방,대구 서구 서대구로62길 71,35.8869504216364,128.563933662677
복권명당,"대구 수성구 천을로 180, 상가 108-112",35.8417802987404,128.710244325293
복권천국,대구 북구 동북로 275,35.8935786735316,128.620523010227
복권명당서변,대구 북구 서변로 91,35.92388045781,128.596552138388
복권나라,대구 달성군 현풍중앙로 99,35.6976041084372,128.442962606141
포에니복권,대구 수성구 들안로 128,35.8413256062095,128.617000394974
천하명당,대구 북구 노원로 128,35.896712513603,128.575184294179
수성복권(미니마트),대구 수성구 시지로1길 29,35.8423931745052,128.695653267192
1등다수 복권마트,대구 북구 팔달로27길 81,35.8922049815231,128.567963179854
노다지복권방,서울 송파구 송이로 112,37.4963859795829,127.121687252004
프라임24시편의점,울산 북구 아진로 78,35.6304266292859,129.340320777073
천하명당(염포점),울산 북구 염포로 643,35.5348630436986,129.389784960412
토토세상,"강원 원주시 지정면 조엄로 215, 3호",37.3605798340974,127.860539007224
서울마트(서울복권방),경기 동두천시 어수로 116,37.9017523107139,127.055380521996
행복복권(나드리마트),부산 사상구 사상로 477,35.1872483244089,128.987206494781
타임마트,대전 서구 관저중로 86-1,36.2998767684902,127.335194048204
썬마트24,충남 아산시 시민로 399,36.7843634896985,127.000912142178
베팅샵(가장),"대전 서구 용문로 46, 102호",36.3386360335297,127.388304125849
위앤조이편의점,충남 천안시 서북구 천안대로 1391,36.8648948800469,127.149622839288
두꺼비,충북 청주시 서원구 산남로 47,36.6109845613002,127.468790882221
노다지복권방(읍내),대전 대덕구 대전로 1349,36.3742555135604,127.419965073596
부여복권방,충남 부여군 부여읍 사비로 94,36.2809428041045,126.910894822062
플러스24쌍용본점,충남 천안시 서북구 월봉로 74,36.7972311398427,127.118123879691
노다지복권방(원성),"충남 천안시 동남구 원성천1길 151, 2호",36.8086259209206,127.161939884266
오케이홈네트웍스,광주 동구 필문대로 6,35.1643831375134,126.920004051526
남원복권방,전북 남원시 남문로 414,35.4063677569089,127.376613027993
썬,전북 전주시 덕진구 우아3길 18,35.8487871813803,127.154987847802
행운복권방,광주 광산구 도산로9번길 28,35.1282606652123,126.79046220833
다온하랑,전북 정읍시 충정로 38,35.5576341879293,126.871252671623
우정슈퍼,전북 군산시 공항로 61,35.9773681705206,126.681040566538
현대장미슈퍼,전북 익산시 동서로61길 41,35.9549102215529,126.980450476439
대박찬스복권방,전북 정읍시 관통로 59,35.5618936249719,126.858610273339
대박복권,서울 영등포구 당산로 140,37.5271018135324,126.897158034347
복권하우스,경기 평택시 송탄로 369-1,37.0764240492306,127.057722616358
주택복권방(덕천점),경기 안양시 만안구 수리산로 53,37.3893820457371,126.931681098994
천하명당복권방,경기 수원시 팔달구 매산로3가 128-4,37.2703967398307,127.008749036077
명당복권점,경기 수원시 팔달구중부대로 50-1,37.2750487114993,127.022496102787
주택복권방,경기 수원시 장안구 파장로 19,37.3042433909319,126.998032389705
천하명당복권방,경기 화성시 남양읍 남양시장로 83,37.2099501648004,126.81829505822
복권나라,충북 청주시 상당구 상당로 9,36.6291930748368,127.491054146657
복권명당,"충북 청주시 청원구 오창읍 구룡택지로 8-21, 104호",36.7103217695725,127.415627474145
행운편의점,충북 충주시 봉황1길 2,36.9768746937356,127.921219271633
행운예감,충북 충주시 국원대로 5,36.9734127220576,127.9233113854
복권명당,대전 중구 목중로 47,36.3374883086314,127.40931078343
복권천국,경기 부천시 부일로 502,37.4852665484893,126.785867756558
도울복권,광주 동구 중앙로196번길 15-35,35.1504156801318,126.917867831153
복권나라(광양시),전남 광양시 백운로 1,34.9712632148982,127.589778883895
TOTO복권(광양시),전남 광양시 호북길 4,34.9792081739383,127.584314608255
복권나라(저전동),전남 순천시 중앙로 61,34.9512577657717,127.483575657685
복권나라(여수교동),전남 여수시 중앙로 62,34.7399319441762,127.73434301317
복권나라(학동),전남 여수시 흥국로 6,34.7635691680105,127.663464230519
행운복권방,전북 고창군 고창읍 중앙로 200,35.4349716897835,126.697489156764
대박복권방,서울 용산구 효창원로 262,37.5505996665868,126.963815728778
복권왕국,인천 부평구 부흥로 359,37.4981956724086,126.731943816856
조치원복권방,세종 세종 조치원로 9-1,36.6015444137292,127.297880185754
천하명당홍명복권방,대전 동구 대전로813번길 1,36.3319858242155,127.432019426416
강경복권방,충남 논산시 계백로 126-1,36.156024121378,127.014865909295
황금알복권방,충북 진천군 진천읍 상산로 71,36.8546982359599,127.441902154639
포항오광장,경북 포항시 북구 중흥로 216,36.022629006905,129.358281722522
영천문화점,경북 영천시 동부로 31-6,35.9731441273753,128.94834242492
도농빙그레점,경기 남양주시 미금로 54,37.6097374704907,127.152084066598
충무로점,서울 중구 수표로2길 29,37.5623042207217,126.992129656135
북신2호점,경남 통영시 중앙로 303-18,34.8578179735524,128.427532191936
지중해점,경남 거제시 장평로 28,34.8913156656929,128.614420584968
포항장흥점,경북 포항시 남구 철강로 200,35.9861064740991,129.363802968992
행신소만점,경기 고양시 덕양구 충경로 136,37.615747480519,126.844846909154
우만본점,경기 수원시 팔달구 월드컵로297번길 42,37.2841039191115,127.033436850324
안양평촌점,"경기 안양시 동안구 평촌대로223번길 49, 104호",37.3903595340571,126.953064536797
역촌대로점,서울 은평구 연서로 54,37.6040159508044,126.915941592119
미나식품,서울 강서구 금낭화로 91-10,37.5735749828206,126.810806144469
논현한미점,서울 강남구 봉은사로 179,37.5074604391987,127.033395973437
청학점,"경기 남양주시 별내면청학로68번길 3, 101,102호",37.7107377945327,127.120061326535
포항효자점,경북 포항시 남구 효자동길5번길 12,36.0077972908632,129.329053373397
덕수점,서울 중구 세종대로 89,37.5644701191978,126.976486644506
서초프랜드,서울 서초구 효령로 349-5,37.4870269317474,127.021999928841
초량일신점,부산 동구 중앙대로320번길 3-2,35.1248151156663,129.045764797802
고양원당점,경기 고양시 덕양구 호국로779번길 29,37.656858052661,126.833995451621
대박복권방,서울 관악구 난곡로66길 15,37.4827222282651,126.915263946329
일등복권방,광주 동구 제봉로 98,35.1471933210355,126.922109339722
도깨비방망이,전남 완도군 장보고대로 220,34.3160749197408,126.74917122209
복권천국,전남 해남군 해남읍 북부순환로 138,34.5750812519155,126.597226993919
봉담복자리복권과편의점,경기 화성시 봉담읍 삼천병마로 1276,37.2196746428376,126.948806010866
토토복권방(함안점),경남 함안군 가야읍 함안대로 552,35.2758624122767,128.405741859682
복받는날,경북 포항시 북구 삼흥로 64,36.0675884367609,129.378987891251
환희복권방,경북 포항시 남구 상공로 243,36.0232860311663,129.372229166577
불타는복권,경북 영주시 풍기읍 기주로 84,36.8699100006613,128.526662506748
시스페이스수성중동점,대구 수성구 들안로 165,35.8446842104205,128.616428085018
복권세상,경기 남양주시 청학로 97,37.7079032542788,127.116272778035
복권마당,경기 연천군 전곡로144번길 10,38.0251655354524,127.06947517392
대박복권방,경기 양주시 광적면 가래비길 33,37.8225013851536,126.98673375291
토토군로또양,"강원 원주시 배울로 17, 102호",37.3196906731602,127.974325537516
진부복권나라,강원 평창군 청송로 101,37.6367743555723,128.557585219569
복권방,경기 가평군 청평중앙로 35,37.7373658392937,127.418597431776
인제복권방,강원 인제군 인제읍 비봉로 11-1,38.0681626023891,128.172825499148
복권마트&씨스페이스 홍천점,강원 홍천군 홍천읍 홍천로 409,37.691276675414,127.889910277195
복권명당,강원 태백시 황지로 32,37.1615610093421,128.990888304013
황금대박복권,강원 원주시 중앙시장길 36,37.3509438771281,127.950284449462
신운복권,강원 정선군 정선로 1333,37.3796203742762,128.662079914186
스포츠토토 성수2가점,서울 성동구 아차산로7길 42,37.5486614429741,127.055829238617
행복공간,서울 강동구 풍성로 115,37.532128084546,127.125116925041
모현복권방 및 편의점,경기 용인시 처인구 모현면 백옥대로 2385,37.3366227571421,127.249347150176
복권왕국,경기 부천시 경인로216번길 7,37.4829689894953,126.779552468063
복권천국,인천 남동구 석산로 120,37.4602191637325,126.705060003165
복권천국,인천 부평구 평천로391번길 4,37.51769901574,126.733965808826
행운대박복권,서울 영등포구 영신로19길 8-1,37.5144211933008,126.906821911216
복권명당,경기 안산시 상록구건건로 41,37.3049920119479,126.901954432127
진복권방,"경기 의왕시 포일로 43, 101호",37.3900446690729,126.977429944362
명성복권방,경기 화성시 경기대로 1043,37.2085116047481,127.034275404282
가로가판점1,서울 영등포구 영등포동 1가 143-3,37.5169750910421,126.909256707663
하나텔레콤,"서울 영등포구 여의나루로 42, 여의도역5번출구 앞 가판",37.521470230225,126.924971147893
휴먼복권방,경기 안양시 만안구 장내로140번길 36,37.3963298852531,126.924231336312
로또통신,전북 전주시 완산구 호암로 18,35.8087855397788,127.096704437066
복권전문점고흥,전남 고흥군 고흥읍 고흥로 1740-2,34.6073771399448,127.28457101401
행운복권,충북 제천시 명륜로 67,37.1423162548353,128.208639474645
로또하복대두진점,"충북 청주시 흥덕구 증안로 29, 상가 101-2호",36.6368056472615,127.426713125215
투맨마트,대전 중구 수침로55번길 27,36.3250146073803,127.399122584365
서산복권방,충남 서산시 고운로 103,36.7802868562082,126.448886567993
경산삼풍점,경북 경산시 삼풍로 22,35.8224371270421,128.755468792007
둔촌하이츠점,서울 강동구 진황도로 180,37.5301474141824,127.14253064303
역촌서오릉점,서울 은평구 서오릉로 74,37.6070622647804,126.922490102353
수원현대점,경기 수원시 장안구 경수대로1020번길 6,37.3071338383451,127.000637997581
광주중앙점,광주 북구 태봉로 67,35.1630953643123,126.905599785902
연신내점,서울 은평구 통일로 822,37.6173185244927,126.923232003212
부천송내점,"경기 부천시 상일로 92, 108호",37.4913085974355,126.752475933419
인천학익2호점,인천 미추홀구 매소홀로 388,37.4397867860713,126.665095919186
GS25 서초유원,서울 서초구 효령로51길 8,37.4847883103697,127.012610440826
칠곡중리점,경북 칠곡군 석적읍 유학로 10-1,36.0795459610673,128.411359673713
동천우방점,경북 경주시 양정로290번길 13,35.8586806908752,129.225576643694
로또복권,대구 북구 대현로 63,35.8839860050041,128.606632322558
로또명당,대구 동구 효목로 53,35.8779942819361,128.640100951553
대박복권방(삼정),경남 김해시 활천로36번길 28-6,35.2320530423744,128.896062185987
대박복권방,전북 김제시 화동길 53,35.7989850375368,126.890585186267
초월대박복권방,경기 광주시 경충대로 1252,37.3867047040596,127.288233251617
순창복권방,전북 순창군 장류로 369,35.3764797601419,127.142762737227
도깨비방망이복권방,경남 함안군 칠서면 칠평로 63,35.3167091880709,128.505508509931
피여리,"경기 성남시 수정구 성남대로1416번길 12, 101호",37.4562082299402,127.127699741837
잉크와 복권,경북 안동시 경동로 350,36.5718260247616,128.699409205515
노다지훼밀리,서울 강동구 구천면로 251,37.5428012323584,127.13126443343
복권명당자인점,경북 경산시 자인면 자인로 176,35.8162171421328,128.825549200202
찬스복권방,전북 전주시 덕진구 태진로 120,35.8316537659083,127.135988559604
운수대통복권방,경기 안산시 상록구 부곡로 132,37.3335402867157,126.864069265296
한방복권방,서울 금천구 가산로3길 10,37.4724530809418,126.895075321037
정관장 홍삼 부안점,전북 부안군 부안읍 석정로 197,35.7280915943678,126.73741295505
복권천하,서울 강북구 월계로7나길 35,37.6125871070688,127.031872466251
대박찬스복권방,서울 영등포구 도림로 356,37.5089051531946,126.900093144418
1등복권방,서울 관악구 남부순환로 1545,37.4834858152133,126.922179929824
다모아복권,서울 영등포구 신풍로 92,37.4998240340683,126.91635731063
행운이랑대박이랑,경기 수원시 장안구 만석로 99,37.2989215310881,126.992081389016
복권천국,전남 무안군 무안읍 무안로 506,34.9883700903002,126.479125311015
돈돈복권방,대전 서구 계룡로 560,36.3422355122029,127.385827595259
행운플러스,대전 대덕구 덕암로 214,36.4395009919964,127.42393140973
유성포장(희망복권 간판),서울 구로구 도림로 85,37.4904431049661,126.892609095698
다모아복권,서울 구로구 디지털로32가길 25,37.4821488683208,126.898930994884
미니24,인천 미추홀구 경인로 437,37.458152473284,126.688673449552
동해마트,부산 동래구 사직북로57번길 58,35.1973915743995,129.058807533672
왕대박,"경기 남양주시 다산중앙로145번길 17, 109호",37.6252930091024,127.150473660416
삼성24시편의점,강원 원주시 원일로 162,37.3529754320792,127.946600088397
천하명당,경기 포천시 송우로 38,37.8284836428549,127.14482887737
일신슈퍼,경기 포천시 탄동길 5,38.1583740823048,127.24980301013
터미널마트,강원 춘천시 터미널길 18,37.8646574689072,127.71875386574
종로문구상사,서울 종로구 종로41길 5,37.571569153632,127.006519624385
복권방,서울 영등포구 대림로46길 7-1,37.5029943916765,126.897165550716
해피데이,경기 시흥시 월곶중앙로 38,37.3880192731757,126.741332867453
복권당첨,충북 충주시 주덕읍 신양로 125,36.9738617330538,127.800899199727
다사랑전자,"대전 대덕구 대덕대로1470번길 27, 상가A동 107호",36.4480704345384,127.412445386581
원마트,대전 대덕구 홍도로 106,36.3555809831338,127.427614468314
충정로2호점,서울 중구 중림로 10,37.5589266608979,126.964320892997
창동3호점,서울 도봉구 덕릉로 404,37.6457146139819,127.053833889064
의정부호원점,경기 의정부시 회룡로 107,37.7259942396582,127.045724587174
구리인창3호점,경기 구리시 건원대로 87,37.6086789021696,127.138390990172
용인수지3호점,경기 용인시 수지구 문인로31번길 12,37.3320460225708,127.099091963796
경주동국대점,경북 경주시 금성로 406,35.8539084472238,129.207065444867
경산해오름점,"경북 경산시 삼성현로31길 7, 104동 112호",35.8204947429448,128.720087969959
동래롯데점,부산 동래구 동래로 17,35.2130415445886,129.07792933875
부산거제점,부산 연제구 거제천로87번길 22,35.1826362641653,129.072151147158
수원조원점,경기 수원시 장안구 조원로112번길 2,37.3024024441573,127.014326073512
대전만년2호점,대전 서구 만년로 78,36.3670920959585,127.381437585572
대전 용문점,대전 서구 용문로 70,36.3371278050399,127.390136379597
광주풍암점,광주 서구 풍암순환로 99,35.1212892624218,126.882370006576
광주대인점,광주 동구 구성로 221-1,35.1549765341696,126.915984099564
광주치평점,광주 서구 시청로 6,35.1489906971384,126.852125753353
광주삼각점,광주 북구 설죽로370번길 33,35.1938481348888,126.901994098783
전주우아점,전북 전주시 덕진구 도당산로 67,35.8475916072398,127.157252810495
역삼경복점,서울 강남구 봉은사로44길 5,37.5087062231303,127.040429370422
회현역점,서울 중구 퇴계로 48,37.5579925213862,126.9780363784
카이스트점,서울 동대문구 회기로 119,37.5915980538813,127.049904368146
염창1호점,서울 강서구 양천로 713,37.5498405882542,126.875250908344
양산신도시점,경남 양산시 양주1길 23,35.3411048881785,129.030413392475
정선고한점,강원 정선군 고한읍고한로 129,37.2025893954265,128.850968435683
음성금왕점,충북 음성군 금왕읍 무극로 291,36.9932969077547,127.593788501052
천안원성점,충남 천안시 동남구중앙로 16,36.799679230997,127.153659718787
남부순환로점,"서울 관악구 남부순환로 1680, 101호",37.4840824266542,126.937097299683
옥련1호점,인천 연수구 독배로 56,37.4256288981437,126.644901515704
부평공원점,인천 부평구 길주남로 33,37.5047581701223,126.725294033148
고성명성점,경남 고성군 고성읍성내로 152,34.9729633731339,128.324829321693
GS25신사현대점,서울 강남구 강남대로152길 5,37.5171837720103,127.019992833658
종로안국,서울 종로구 율곡로 61,37.5769376128622,126.985928056841
GS25망원중앙,서울 마포구 월드컵로 126,37.5595485848202,126.907263959731
신촌연세점,서울 서대문구 연세로11길 16,37.5590344807508,126.935893389687
목동스위트점,서울 양천구 목동서로 65,37.5361251512716,126.878730311055
불광본점,서울 은평구 불광로 81,37.614319461734,126.932146806244
상동타운점,경기 부천시 소향로37번길 31-7,37.5046846189743,126.751695069018
상동모건점,경기 부천시 길주로 81,37.5062577844709,126.751530389315
안산팔곡,경기 안산시 상록구 본이로 83,37.2949375103779,126.87600013429
벽산밸리점,서울 금천구 가산디지털2로 184,37.4842493589397,126.878084255358
안산와동,경기 안산시 단원구 와동공원로 127,37.3429150153725,126.82116554898
시화정왕점,경기 시흥시 옥구상가2길 10,37.3535139672349,126.723649811699
산본거성점,경기 군포시 산본로323번길 26-18,37.359157914758,126.930969719008
산본타운,경기 군포시 고산로 695,37.3721896392194,126.93526888179
GS25오동점,경남 창원시 마산합포구 아구찜길 34,35.2070653282686,128.57851813519
진주경상대,경남 진주시 가좌길 42,35.1577887433489,128.105198157318
GS25마산해안점,경남 창원시 마산합포구 월영동9길 24,35.1799094386203,128.563934234023
다대성원점,부산 사하구 다대로 636,35.0498170804288,128.969871131805
못골시장점,부산 남구 못골로 73,35.1361308445819,129.090346272638
조방점,부산 동구 조방로49번길 18,35.1392516645307,129.059940502692
서동로점,부산 금정구 서동로 105,35.2167048349452,129.098504077187
연산토곡점,부산 연제구 고분로 235,35.1846489429006,129.108024177884
GS25울산신복점,울산 남구 신복로21번길 12,35.5473302486834,129.259122719197
칠곡거동점,대구 북구 팔거천동로 213,35.9429942775029,128.557739031345
칠곡동림,대구 북구 동천로 128-16,35.9424547680566,128.562542511609
대전중리점,대전 대덕구 중리로 19,36.3608417919839,127.425104247646
온천파크,충남 아산시 아산로 70,36.7884712745876,126.996883291854
제주점,제주 제주시 중앙로 238,33.4984757342927,126.530328047754
화북주공점,제주 제주시 동화로 7,33.5194051495984,126.573119751223
제주크라운점,제주 제주시 신광로 94,33.4837017071922,126.489632600056
성수역점,서울 성동구 성수일로8길 30,37.5457852786233,127.053683301329
논현6호점,서울 강남구 도산대로46길 11,37.5212897930232,127.036652689515
인천문학점,인천 미추홀구 매소홀로 578,37.438256649812,126.68622804974
율암25시편의점,경기 화성시 팔탄면시청로 822-10,37.1681794678478,126.884577495123
창원명서점,경남 창원시 의창구 우곡로217번길 27,35.2413032702506,128.649656920397
거제장평점,경남 거제시 장평3로 46,34.8928870928931,128.60939486752
복권천하,"경기 부천시 조마루로285번길 34, 105-1호",37.4990518521373,126.775485937522
흥부네복권,인천 부평구 부흥로243번길 7,37.4998000055664,126.717938344817
행운미니수퍼,서울 금천구 독산로44길 61,37.4618969206167,126.907929057953
주공24시편의방,대전 동구 옥천로180번길 19,36.3166508121233,127.461146054566
보물섬,인천 미추홀구 미추홀대로 599,37.4509243648964,126.679527361693
대박천국,"경기 부천시 수도로 194, 108호",37.5192559809659,126.786488514789
복권나라,"인천 서구 완정로 65번길 10, 상가 B동 제비 107호",37.5963975982442,126.667009174949
천하명당,경기 시흥시 신천3길 26-1,37.438902489816,126.783317487539
대박왕국,인천 남동구 구월말로 18,37.4505057127476,126.724617365731
행운마트,인천 동구 송림로 71-1,37.4754437718514,126.642739776981
모든정보통신,"경기 남양주시 화도읍 비룡로 331, 104호",37.6806659466418,127.3030013039
복권천국,서울 성동구 무학봉16길 22-2,37.5599450477676,127.032922410822
부자랑복권방,서울 성동구 둘레15길 23,37.536894389345,127.055255643466
노다지복권방(태평),경기 성남시 수정구 남문로 57,37.4458978262293,127.133189098492
천하제일명당,경기 용인시 기흥구 흥덕2로75번길 10-1,37.2744344612261,127.072861032668
복권방,경기 용인시 기흥구 신갈로68번길 24,37.2731667454483,127.108154883953
서원탑훼미리마트(기장),부산 기장군 기장읍 차성로344번길 38,35.2478864065812,129.21592444443
복권방(당감),"부산 부산진구 당감서로 84, 202호",35.1677474374381,129.037135233697
굿데이편의점,부산 연제구 쌍미천로 10,35.1747034457478,129.092295445953
미니식품,서울 종로구 청계천로 159,37.5692814302828,126.995239727442
씨스페이스 창경궁로점,서울 종로구 창경궁로 137,37.5746368300317,126.997294123203
대한복권,경기 부천시 부천로 52,37.4888641450749,126.784018700689
좋은터,인천 계양구 효서로 204,37.5278163833637,126.718549686844
대박,경기 부천시 지봉로 114,37.4882275232023,126.811568527978
창대마트,경기 부천시 원미로 198,37.5000924005531,126.793398242596
행운복권방,"경기 김포시 통진읍 서암로 139, 가동 101호",37.6972697451081,126.601581084752
한방복권방,경기 화성시 효행로763번길 23,37.2042475524882,127.013961336481
대박예감,경기 화성시 영통로 36,37.2339716545878,127.063985296669
로또슈퍼,경기 안산시 상록구 매화로4길 8-1,37.3046238771974,126.862040238823
복권전문점,"경기 시흥시 진말로9번길 2, 114호",37.3784640235878,126.785268524363
로또(부동산),경기 안산시 상록구 부곡로 21,37.3243920720441,126.859407421628
편의점 나들가게,서울 영등포구 선유로 106-1,37.523410990623,126.890488844881
가로판매점3,서울 영등포구 당산동6가 331-6,37.5344807618687,126.901623558744
행운복권방,인천 미추홀구 인하로 354,37.4479851039632,126.687643567365
희망복권,충북 청주시 서원구 청남로 2034,36.6136198908979,127.485851480563
공주복권방,충남 공주시 웅진로 210-2,36.4591615247001,127.125120615513
보령복권방,충남 보령시 중앙로 48,36.3490387918832,126.598240164401
위드미사창대로점,충북 청주시 서원구 1순환로 635,36.6369383227267,127.459743179737
왕대박복권방,제주 서귀포시 표선면 표선관정로 103,33.3239987607948,126.831168560448
복권전문점,전남 담양군 담양읍 중앙로 32-2,35.316001044059,126.983519257224
청과복권,전남 목포시 영산로 525,34.8132592021705,126.417108462653
행운복권방,광주 광산구 금봉로 95,35.152197225865,126.80896581256
777천하명당,충남 서천군 충절로 58,36.074877335525,126.689062255955
도깨비복권방,인천 계양구 봉오대로 677,37.5309320460787,126.724012741982
토토존,광주 광산구 비아중앙로31번길 10,35.2217176324558,126.824237008843
당진복권방,충남 당진시 교동길 140,36.8920417949709,126.630276837362
한일복권,서울 도봉구 도봉로155길 20,37.6729800039338,127.042914242978
스나이퍼,경기 의정부시 용민로 31,37.7355610423058,127.082206385952
대박복권방,경기 의정부시 추동로 3,37.7427551898046,127.056480836979
복권세계,경기 의정부시 호국로 1330,37.7437864690343,127.051907727612
씨스페이스의정부신곡점,경기 의정부시 시민로 200,37.7365729903054,127.056893517053
복권닷컴,경기 의정부시 시민로 155,37.7375825743356,127.052317715202
행운복권마트,경기 의정부시 평화로 477,37.734597013595,127.04768431596
터미널유통마트,경기 의정부시 신곡로 47,37.7309361801678,127.056288766732
소문난 복권명당,서울 성북구 돌곶이로 29,37.6069166923795,127.060864753875
로또복권방(성신여대역점),서울 성북구 동소문로 20길 28-4,37.591368135737,127.016579257104
스파,"서울 노원구 동일로 1493, 상가 111호",37.6616423693886,127.058001700205
나눔,서울 도봉구 도당로13길 34,37.6661480011326,127.034870789388
노다지복권방,서울 동대문구 한빛로 1-1,37.5763302856205,127.023939791577
복권전문점,서울 도봉구 도당로 123-1,37.667494168341,127.039946024184
대박찬스,경기 남양주시 진접읍 광릉내로82번길 2,37.7449112645835,127.20364533501
복권나라,강원 춘천시 춘천로 286-1,37.8805922114736,127.745002951135
대박찬스,경기 남양주시 장현로 111,37.7197840942478,127.183938971283
복권천하,강원 동해시 발한로 35,37.5358805843866,129.103185996886
복권만화,"서울 서초구 사임당로 39, 102호",37.4884189352008,127.014095010132
복권천국,서울 서초구 서초대로 97,37.48770758374,126.992859786919
행운마트(하남),"경기 하남시 조정대로 45, R110호",37.5506851829474,127.184475919003
단골집편의점,서울 강동구 구천면로 194,37.5405895135206,127.126257139708
행운의집,서울 광진구 능동로19길 7,37.5469195898615,127.073364979703
대박스포츠토토,서울 성동구 성수일로8길 30,37.5457852786233,127.053683301329
천하명당,서울 광진구 자양로18길 34,37.5377825275173,127.085463281895
천하명당,서울 광진구 능동로 413,37.5659553815587,127.084082742943
대박찬스복권방,경기 용인시 기흥구 상갈로 1,37.2665814350009,127.106924157385
안성맞춤,경기 안성시 중앙로371번길 81,37.0110088093036,127.270153138247
노다지,경기 용인시 처인구 금령로 130,37.2351637037009,127.210500032181
명지복권방,서울 송파구 거마로 55,37.4978508169634,127.146253556315
대박마을복권방,경기 하남시 신장로 182,37.5415335725256,127.200077305357
복권나라,서울 송파구 백제고분로32길 23,37.5003571126309,127.095023316989
태원통신,경기 하남시 하남대로 851,37.5430384598994,127.203533441836
한경종합광고,"서울 송파구 백제고분로 198, 101호",37.5039376838599,127.088561618297
복권백화점,경기 여주시 세종로 41,37.2940023264951,127.636288442578
행복한사람들(흥부네),경기 광주시 초월읍 경충대로 1014,37.37007178215,127.304090467705
월드컵복권방,경기 광주시 경안로 20,37.4099289865478,127.258382575225
행운복권방,경기 성남시 중원구 금상로 118,37.4424479472193,127.167974186363
대박나라베팅숍,경기 부천시 성주로 84,37.4794185098837,126.765526928876
복권천국,경기 부천시 고강로92번길 41,37.5282342184234,126.815085789122
복권백화점,서울 마포구 월드컵로 157,37.5616066470656,126.904781124598
복권방,서울 마포구 백범로 127,37.5465765720018,126.945412775474
복권천국방,서울 마포구 동교로 92,37.5542374342588,126.912399133958
복권마트,서울 서대문구 세검정로 31,37.5919699391672,126.944930799279
행운복권방,서울 은평구 연서로 258,37.6198100033795,126.923335802805
복권세상,인천 계양구 작전시장로 11,37.5327089221076,126.723942836845
복권천국,인천 부평구 평천로 306,37.5171140921725,126.724419273047
힘찬복권방,인천 부평구 장제로 112,37.4953961934712,126.730413075945
행운복권,"인천 부평구 배곶로 24, 비03호",37.4706012476698,126.69839930551
복권나라(가좌사),인천 서구 원적로 73,37.4936571016794,126.680615310851
삼정텔레콤,인천 서구 검단로487번길 1,37.6026756663935,126.658337251736
복권나라,인천 서구 거북로 80,37.5030815359672,126.670620992637
복권전문점,인천 부평구 원적로 437,37.5037479776282,126.715141923592
복권마을,경기 광명시 광화로 16,37.4733018145898,126.849607059123
로또삼성복권방,경기 수원시 영통구매영로 141,37.2667111158006,127.058175996827
노다지복권방,경기 시흥시 복지로 103-1,37.4482366898707,126.792081616164
복권나라,경기 시흥시 신천로 80,37.4374844574996,126.786227814417
복권마을,경기 시흥시 수인로3409번길 28-1,37.4393241428901,126.77969897871
행운슈퍼,경기 안산시 상록구 각골로 129,37.3010144021575,126.872719898188
하이로또복권방(관양점),경기 안양시 동안구 관악대로339번길 7,37.404204005638,126.960193944136
하이로또복권방(평촌점),경기 안양시 동안구 흥안대로 450,37.3940299857433,126.975632029675
왕대박복권방,경기 오산시 오산로 13,37.128265853998,127.066789788069
노다지복권방,경기 오산시 오산로 298-1,37.1535734958303,127.068839680848
행복충전소,경기 평택시 탄현로 332-2,37.0818046094419,127.05641264977
파란만장복권방,경기 화성시 효행로 1016,37.2124119180462,127.038858107464
노다지복권방,"경기 안산시 단원구 광덕동로 91, 103호",37.3126513021701,126.832583514394
복권명당,서울 구로구 개봉로 26,37.4880063670866,126.856494843704
복권마을,서울 구로구 구로동로 72,37.485330400008,126.886039054657
다모아,서울 구로구 구로5동 29-21,37.504474097568,126.89180275563
대박복권방,서울 금천구 독산로64길 18,37.4650756285622,126.903671353357
하이로또,서울 금천구 금하로 686,37.4519003029052,126.906355229868
복권나라,서울 동작구 성대로 42,37.4988444814987,126.933392487301
복권마을(사당),"서울 동작구 사당로 215, 101호",37.4844593113614,126.972344800972
천하명당(사당),서울 동작구 동작대로7길 11,37.4798283721243,126.980869476454
복권마을,서울 영등포구 가마산로 421-2,37.5046099965256,126.903590610576
다모아복권방,서울 구로구 서해안로30길 13-7,37.4933156575955,126.844340293318
주택복권사랑방,서울 관악구 난곡로 363-1,37.4864371159699,126.913442051154
편의점사랑,서울 강서구 곰달래로25길 57,37.5331477530855,126.848289726398
포미나,대구 중구 중앙대로 301,35.860208467255,128.59192709322
복권명당,대구 동구 팔공로 128,35.9101345690943,128.641227302733
복권명당,대구 동구 경안로 751,35.8692508020698,128.713471176525
복권명당,대구 수성구 들안로 243,35.8517462942895,128.616648593278
복권코리아,대구 달서구 와룡로 19,35.8341404057557,128.536920925838
복권전문백화점,대구 달서구 달구벌대로 1223,35.8522039357537,128.501269088068
복권명당(서부점),대구 달서구 월배로 452,35.8336179655221,128.554778643349
미래로또,대구 달성군 논공읍 논공로 733,35.7295054918678,128.447630516949
복권명당,경북 영천시 호국로 31,35.9723795307427,128.941470169074
천하명당우현점,경북 포항시 북구 아치로 11-1,36.0503659025277,129.360507240468
복권명당황남점,경북 경주시 포석로 966,35.8272186414441,129.210031619772
로또야놀자,경북 경주시 양정로 211,35.8515067704754,129.224011310712
복권명당,경북 경산시 경안로 214,35.8266197549989,128.736806406212
복권명당울진,경북 울진군 울진중앙로 79,36.9892478848429,129.39884022309
복권나라,대구 서구 당산로 273,35.8604672488581,128.546113670297
로또명당(북부점),대구 서구 서대구로 318-1,35.8860045255252,128.557899479896
세진전자통신,대구 서구 서대구로 156,35.8718986373835,128.555199068014
복권명당,경북 구미시 송동로 88,36.1406194271796,128.323513499426
행운복권방(온천),부산 동래구 온천장로 99,35.2198301336894,129.083508754986
희망복권방(명장),부산 동래구 명장로20번길 26,35.2048041817648,129.101957810808
왕대박(사직),부산 동래구 여고로113번길 59-4,35.2010683790614,129.074094186578
수제현미누룽지(금정점),부산 금정구 금강로 691,35.2692158070493,129.088859940198
해운대온천복권방,부산 해운대구 해운대해변로 323,35.1625924436682,129.165494101587
태양슈퍼마켓,부산 해운대구 신반송로 171,35.2283608986228,129.161220489965
행운복권방(부암),부산 부산진구 동평로 115,35.1662677826018,129.041968564006
나래이엔씨,부산 부산진구 전포대로 294,35.1628237857617,129.066855875941
행운복권방(모라),부산 사상구 사상로 527-1,35.1913581499584,128.989273146535
복권천국(부민),부산 서구 구덕로 207-1,35.1031606699609,129.019736692817
드림복권방,부산 북구 금곡대로 460,35.2494560745354,129.013141960083
천하명당초량점,부산 동구 중앙대로221번길 3,35.1168821929218,129.040105531758
복권나라(남성),경남 창원시 마산합포구 동서북7길 55,35.2039931574458,128.575836698749
복권파는집,경남 창원시 마산회원구 315대로 765,35.240212050509,128.583619818997
삼계복권전문점,경남 창원시 마산회원구 내서읍경남대로 915,35.2318625546923,128.504669871933
북마산복권전문점,경남 창원시 마산합포구 북성로 98,35.2157976111259,128.5708476059
금돼지,경남 진주시 사들로 30,35.1708039691881,128.147393038103
천하명당(선구),경남 사천시 수남길 17,34.9284393887037,128.073173384417
천하명당(옥포),경남 거제시 옥포성안로 60,34.8917029847155,128.694852511716
로또통신,경남 김해시 함박로101번길 22,35.234210187565,128.86584214296
폭스일레븐(창원점),경남 창원시 성산구 가양로136번길 14,35.2083595308897,128.708082024708
진빈레코드,경남 밀양시 북성로 7,35.4984578095921,128.743849472364
서창복권나라,경남 양산시 서창서2길 3,35.4162007541456,129.172241773542
양산노다지복권방,경남 양산시 북안남2길 52,35.3482592004656,129.037834876003
행운열차복권방(다운),울산 중구 다운로 114,35.5630933639189,129.267267380888
느낌복권방,울산 중구 화합로 414,35.5622133258839,129.338066453139
대박찬스,울산 중구 명륜로 40,35.5557256991697,129.309742969717
대박이네,울산 중구 구교로 163,35.5592826071591,129.340087647923
노다지복권방(남창),울산 울주군 온양읍 태화8길 57,35.4151908558621,129.281286050925
샘복권방,울산 울주군 천상중앙길 69,35.5630190503326,129.22873107401
대박찬스,울산 북구 염포로 531,35.5440060917089,129.385006925003
로또25시(야음),울산 남구 수암로288번길 1,35.5211442422618,129.336024385811
복권백화점(팔등),울산 남구 수암로 52,35.5307997128856,129.313800869198
로또명당,"울산 남구 대학로 27, 106호",35.5385663682446,129.255646169636
복권(무거),울산 남구 어은로 12,35.5502752650498,129.273658380808
로또복권방,대전 서구 갈마중로 28,36.3475333161133,127.372458054242
대박나라복권방,충남 아산시 서부남로 868,36.777397834041,126.934453698946
대박마트복권방,충남 아산시 음봉로 844,36.8264860912374,127.099250859403
부자복권방,충남 예산군 덕산면 덕산온천로 297,36.6940540755105,126.660902134763
행운복권방,충북 청주시 상당구 상당로 186,36.6449602662681,127.489702719928
행운복권방,충북 청주시 청원구 향군로 116,36.6550348153891,127.481623635337
복권나라,충북 증평군 증평읍 중앙로 199-1,36.7839561792603,127.580914940543
럭키뱅크복권방,충북 청주시 서원구 청남로 2092-1,36.6188426620805,127.487287191535
승일유통,충북 청주시 흥덕구 월명로 42,36.6383142893654,127.453764705525
행운복권방(공단오거리),충북 청주시 흥덕구 산단로 4,36.6345942280625,127.447647958927
복권전문점,대전 유성구 유성대로694번길 84,36.3540688831292,127.336179022901
로또공인중개사사무소,"대전 유성구 진잠로 100, 101호",36.3004553732469,127.31560842687
복권나라,충북 충주시 국원대로 128,36.983001746357,127.92853065771
복권명당(대청점),대전 동구 용운로 67,36.3269084816104,127.450026409653
노다지복권방,대전 대덕구 아리랑로 213,36.3744019554078,127.427132524883
복권나라,대전 대덕구 신탄진동로 1,36.4475864451575,127.429908883694
스크린멀티복권방,충남 천안시 서북구 성거길 81,36.8727193583548,127.200818708593
청룡마트,"충남 천안시 동남구 풍세로 1010-31, 상가 B-102호",36.7977940545113,127.154463600038
운수대통복권방,충남 천안시 동남구 대흥로 122,36.8004888704508,127.149280302734
돈방석 복권방,충남 논산시 시민로 304,36.1925315690018,127.092016890874
여기있었네복권방,충남 논산시 중앙로 417,36.2011337737954,127.087647978582
로또복권방(공주점),충남 공주시 무령로 301,36.4562269327489,127.13315514041
1등 복권방,대전 중구 대종로 49,36.2976228491382,127.455274133962
복권천하문화점,대전 중구 천근로 23,36.3096969123172,127.402773797988
대박마트,대전 중구 충무로 124,36.3187551448933,127.430634488361
떳다복권방,전북 군산시 조촌로 90,35.9719533747293,126.738081973189
도깨비복권방,전북 군산시 문화로 29,35.9699669377107,126.709042941028
일등복권방,전북 익산시 부송1로 51,35.9576572818872,126.987887513099
행운복권보생당건강원,전북 익산시 무왕로 1268,35.9603454488036,126.997229871301
모현로또방,전북 익산시 고현로 109,35.9468441609526,126.943579081906
로또복권방,전북 익산시 부송로2길 4,35.9539798289356,126.993209744356
여기있었네복권방,전북 김제시 남북로 171,35.7993908406512,126.884570792917
대박찬스(오치),광주 북구 서하로 196,35.1870701080668,126.901857968758
에이스복권방,"광주 북구 임방울대로 1059, 101호",35.2120504080923,126.873157626704
신대박복권방,전북 전주시 덕진구 전주천동로 475,35.8356184076139,127.128865536519
복권세상,전북 전주시 덕진구 안덕원로 156-1,35.8329365317899,127.145452135485
천재일우,광주 동구 밤실로 27-1,35.150180900713,126.936854560922
복권방,광주 동구 구성로 232,35.1554497756151,126.916938996758
복권나라,"전북 전주시 완산구 서원로 289-6, 103호",35.8120592766723,127.126256901837
은혜복권방,전북 전주시 완산구당산로 52,35.8320026609145,127.113860563664
탑복권방,전북 전주시 완산구 거마평로 224,35.8122149659804,127.114231525223
여기있었네복권방중앙점,전북 전주시 완산구 전주객사5길 83,35.8218121026156,127.144339947583
천하명당대정점,제주 서귀포시 상모로 326,33.2223396161789,126.254613857571
온세계전자,제주 제주시 한림읍 한림로12길 1-1,33.4154337885696,126.265279728599
왕대박찬스서귀포,제주 서귀포시 중앙로 64,33.2502477656713,126.561607625894
천하명당복권,제주 서귀포시 동문로 38,33.2503332950509,126.564574700446
대박복권전문점,"광주 서구 금화로115번길 9, 106호",35.1339681859827,126.859965691041
행운복권방,광주 서구 화운로 11-1,35.1418530901767,126.884848374287
대야지복권방,광주 남구 회재로 1255-1,35.1347582361325,126.897968987327
복권세상(산정점),전남 목포시 청호로 139,34.8039274358966,126.375817956267
대박복권방,전남 목포시 원산로 64,34.8051592886011,126.37596013499
희망복권방,전남 나주시 풍물시장1길 3,34.9926329097081,126.709466802169
컴퓨터AS,광주 광산구 월곡산정로 67,35.1662235278243,126.809480198053
복권나라,"전남 순천시 해룡면 신대로 97, 상가 109호",34.9315356302534,127.547538399179
노다지복권방,전남 여수시 봉산1로 11-1,34.7325824171061,127.721992379892
우리로또복권방,전남 여수시 무선중앙로 71,34.7727939188308,127.65179283441
럭키복권방,"서울 노원구 노원로 434, 상가 106호",37.6553902068626,127.067452436164
만물전파사,경기 남양주시 마석중앙로 74,37.6520463193206,127.307903216417
행운복권방,서울 중구 다산로35길 11,37.563539806566,127.014848931952
대박찬스,서울 강북구 솔매로 105-1,37.6257967298908,127.0240107013
하이로또,서울 중구 청구로14길 3,37.5611443009298,127.011896783801
꿈이현실로,"서울 중구 소공로 58, 지하 나열 7호",37.5606668775872,126.981847764291
종합복권나라,경기 양평군 양서면 북한강로 12,37.5449448223873,127.320535667322
로또토토대박,강원 원주시 무실로 78,37.345631213486,127.945565776966
동해복권방,강원 강릉시 하평길 40,37.7701731438642,128.913039765485
행운복권,경기 성남시 중원구 시민로 121,37.4390374734645,127.144785083215
노다지복권방,"경기 성남시 분당구 성남대로916번길 20, 110호",37.4101608349855,127.129763039292
대박찬스,경기 광주시 송정로 69,37.4167171317331,127.252304143765
복권방(성내),서울 강동구 천호대로176길 10-3,37.5338400278576,127.136077793718
비디오카페(성수점),서울 성동구 성덕정길 84,37.5377619313618,127.052762758573
MS마트,서울 광진구 광나루로 546,37.5445380643063,127.090158741209
복드림복권방,서울 강동구 상암로 99,37.5474917458973,127.133987509556
칠곡스포츠,대구 북구 칠곡중앙대로 311,35.9235833943706,128.546734544883
메트로센터점,"대구 중구 달구벌대로 2100, C412호",35.8644213158621,128.593340834492
계대마트,대구 달서구 계대동문로 26,35.8553208465201,128.495106660425
성서제일복권,대구 달서구 성서동로 320,35.8492637500895,128.515999883778
대박복권,경북 포항시 남구 오천읍 정몽주로 633,35.9744350628967,129.41422240124
세이브슈퍼,대구 수성구 달구벌대로 2467,35.8591008277665,128.632602513428
복권명당,대구 동구 효신로 16,35.8735993882979,128.634863807631
대박나라행운잔치,경기 고양시 일산서구 일산로 593,37.6796989006304,126.762490105993
즐거운복권방,인천 미추홀구 미추홀대로 541,37.4456949027935,126.678598937822
왕대박복권,"인천 미추홀구 경인로116번길 4, 105호",37.4659731115178,126.655234717599
노다지복권방,인천 미추홀구 한나루로 400,37.4435503452225,126.664949755521
한솔복권&마트,인천 미추홀구 경인로 384,37.4580671475016,126.682610297497
로또명당,"인천 미추홀구 인주대로 423, 101호",37.451463696187,126.683703151137
복권방(황금복권방),인천 남동구 백범로 123,37.4545875909566,126.733233013736
드림월드복권,인천 남동구 만수로27번길 3,37.4594447020848,126.731498297092
제일복권,"인천 동구 송림로162번길 10, 107호",37.4773230940193,126.650636192923
대박,"인천 남동구 선수촌공원로23번길 12, 105호",37.441222697152,126.708615453206
복권왕국,인천 부평구 동수로 168,37.4856289082754,126.737157158043
노다지복권방,서울 서대문구 충정로 73,37.5653149304174,126.96592568593
캐논종합,서울 용산구 새창로 156,37.5337555071395,126.962464031928
노다지복권방,경기 파주시 문산읍 문향로67번길 2,37.858143525312,126.785036683259
행운예감,서울 관악구 신림로17길 45,37.4686866288586,126.936467443039
복권나라,서울 관악구 은천로 40-1,37.4860180512095,126.939843355048
복권명당,서울 관악구 장군봉1길 43,37.4817211799712,126.942452315018
대풍,"서울 관악구 조원로 116, 1층 좌측호",37.4849671764692,126.915258131988
다모아복권,서울 구로구 경인로19길 4,37.4959162824183,126.842813698497
운수대통복권,경기 시흥시 시흥대로1073번길 5,37.431745883741,126.792080347566
로또(파발마점),경기 시흥시 마유로 415,37.3519442533794,126.740583557356
보물단지복권방,"경기 시흥시 서촌상가2길 10, 109호",37.3472709172764,126.733578287489
싼타수퍼,경기 시흥시 군서마을로 42,37.3455678429631,126.747400859286
25시수퍼,경기 시흥시 함송로14번길 13-17,37.3624626201338,126.729984027881
데이앤데이(고잔점),경기 안산시 단원구 광덕3로 175-13,37.3136408482517,126.832160088472
천하명당돼지열두마리,경기 안산시 상록구 수인로 2020,37.3635528674348,126.876253289944
스타매니아,경기 안양시 동안구 평촌대로 371,37.4038425629228,126.949047147623
행운의 사랑방,서울 영등포구 도림로 465,37.515717798064,126.891583825937
복권나라,경기 오산시 오산로272번길 27,37.151196113681,127.071474883151
해피마트,경기 의왕시 부곡중앙로 3-2,37.3211843419829,126.949297507286
운수대통복권방,전북 익산시 무왕로23길 3,35.9597171190321,126.988425944385
희망복권방,전북 익산시 선화로 329,35.9460229331872,126.965719957275
천하명당복권방,"전북 익산시 선화로 130, 101호 일부",35.9479056827321,126.945023635565
아이비존,전북 전주시 덕진구 쪽구름로 34,35.8686660101394,127.07782914239
만물사,서울 중구 남대문로 2,37.5600786131308,126.976243215499
팡팡복권방,서울 중구 퇴계로6길 5,37.5579914099627,126.978360631417
금금산복방,서울 강북구 한천로123길 51,37.6358657929222,127.029192778549
행운마트,서울 중구 마른내로 54-1,37.5642242572706,126.993870604152
캠프코리아유마트,경기 남양주시 수레로 55,37.5890442889691,127.217006065696
운수대통복권방,강원 춘천시 후석로 52,37.8589480670987,127.742665543608
전곡복권,경기 연천군 온골로 31,38.0238122773009,127.068516195617
복권777커피,서울 노원구 화랑로 421,37.6174995624988,127.074329424265
대진,"서울 노원구 동일로 1355, 105호",37.6497007647903,127.061359263286
복권명당,서울 중랑구 면목로 362,37.58426345756,127.088572342579
복권나라중화점,서울 중랑구 봉화산로 30,37.6014405004367,127.077566914738
기린통신,서울 노원구 덕릉로 680,37.6583659137636,127.075430116515
대박찬스,서울 중랑구 면목로48길 11,37.5822885808998,127.089395558933
광장편의점,"경기 의정부시 세석로 24, 107호",37.7296549826,127.109490069237
역전슈퍼,경기 의정부시 가능로 96,37.7467436381173,127.041667962957
행운복권방,경기 양주시 가래비길 57-1,37.8231513714409,126.985511051695
북클럽,경기 의정부시 용민로 122,37.739993885082,127.09070579295
보성정보통신,서울 동대문구 장한로2길 24,37.5619229172028,127.066511623538
참텔레콤,서울 동대문구 전농로 86-1,37.5726641258028,127.057621778381
제일복권,서울 동대문구 회기로 194,37.5898471939807,127.057355809021
삼호슈퍼,서울 도봉구 도봉로 457,37.6467757299533,127.033254629653
대박복권방,서울 동대문구 천호대로 281,37.5675757498172,127.052209219835
국민슈퍼,서울 도봉구 도봉로 588,37.657050480671,127.040104413029
투데이,서울 동대문구 천호대로 67,37.5741174999497,127.031045540269
토토철물,강원 원주시 금불3길 5,37.3483573889477,127.932041125261
유명복권대박,강원 강릉시 율곡로 2793,37.7543103739778,128.900916843773
복권나라,경기 남양주시 도농로 13,37.6072364396042,127.156816291708
바바사진관,경기 남양주시 경춘로 464,37.6093518560281,127.164569065201
바른손퇴계점,강원 춘천시 퇴계로 172,37.8578574979364,127.737892179666
코니아일랜드아이스크림,"경기 남양주시 마치로 339, 나동 102호",37.6557219390065,127.282415170215
대박천하,경기 의정부시 녹양로 65,37.7570950162105,127.033215662155
행운복권방,경기 의정부시 충의로 55,37.7367622315602,127.087199006025
대박복권방(돌곶이역점),서울 성북구 돌곶이로 60,37.6092110228425,127.058990218645
보원상회,서울 성북구 보문로 56,37.5804577063629,127.022268530754
미래통신,서울 성북구 장월로 118-1,37.6162179313453,127.048920570915
한밭식품,서울 중구 창경궁로 53-1,37.5671884042023,126.99788377882
로또복권방,서울 중구 마른내로 21,37.5649540028292,126.990272872081
대박복권방,"경기 남양주시 맷돌로 118, 101호",37.6572973085745,127.303280404522
1등 되는날,경기 안성시 공도읍 기업단지로 2,36.9994389778174,127.163032528759
복권명당,경기 안성시 공도읍 승두길 62,37.0000290726544,127.173165822378
복터진날,"경기 안성시 공도읍 진사길 27, 상가동 비03호",36.9917942796806,127.139796829623
죽전열쇠로또,경기 용인시 수지구 대지로 36,37.3278378833995,127.11367921273
로또복권방,서울 강남구 강남대로122길 50,37.5089118642243,127.027074158958
학창문고&배팅 샵,서울 서초구 서초대로26길 3,37.487668479453,126.994539234638
에이원텔레콤,서울 서초구 동광로 70,37.49258698588,126.990270278414
곤지암대박복권방,경기 광주시 곤지암읍 곤지암로 51,37.3495785770765,127.341110983722
프리웨이스토어,경기 광주시 회안대로 605,37.4067899566075,127.237981095547
드림월드,경기 성남시 수정구 산성동 1456,37.4544444812544,127.150028657183
대운,경기 성남시 중원구 성남대로 1149,37.4323866865778,127.128690501599
웃자로또,경기 광주시 오포읍 오포로 796,37.3616688153547,127.228825291624
황금복권마트,경기 이천시 증신로325번길 5,37.2994173476175,127.437983885227
태양정보통신,경기 광주시 고불로 56,37.3932322152024,127.231819068533
초림마트,경기 성남시 분당구 수내로46번길 20,37.3799013806736,127.115878407518
행운예감,경기 성남시 수정구 수정로171번길 7,37.4434161022003,127.138494998434
현대사,"경기 성남시 분당구 미금일로 77, 102호",37.3456077433631,127.111113543921
OK편의점,경기 이천시 중리천로 56,37.2798765104711,127.443884381822
럭키복권,서울 송파구 성내천로 218,37.499655587349,127.151710114835
윈마트,서울 송파구 삼학사로16길 4,37.5035223319784,127.0976902607
그린마트,서울 송파구 백제고분로19길 26,37.5068943250184,127.087482517904
한양복권,서울 성동구 용답중앙길 78-1,37.5628194315609,127.053924493913
천하명당복권방,"서울 성동구 행당로 75, 리빙프라자동 지하2층 B202",37.556602469483,127.027520677046
복권클럽,서울 성동구 독서당로 318,37.5479763990306,127.024254477371
몽유호가,서울 강동구 올림픽로 552,37.5308341998326,127.12101233589
복권명당,서울 광진구 영화사로 59,37.5552916204458,127.092995250314
복사문구,서울 강동구 양재대로 1549,37.5440484317022,127.142054351358
대성기획,경기 용인시 기흥구 구성로 75-1,37.2949073386736,127.117903169762
치즈마트,"서울 송파구 양재대로 932, 가락몰2관 1층 2-1호",37.4945376921828,127.108713599026
행운마트,서울 강동구 구천면로34길 71,37.5428584686132,127.13507907661
가로매점,서울 마포구 마포대로 53,37.5414321628548,126.947054064308
구두로또,서울 용산구 효창원로 112,37.538079433192,126.960873279347
쎄븐타임,"서울 용산구 백범로47길 6, 102호",37.5407479285905,126.958508157843
안전열쇠,인천 계양구 경명대로 1124,37.5428637628751,126.731866121842
천하명당(효성),인천 계양구 안남로 466,37.5245075048343,126.710882882529
대박복권,인천 부평구 경인로 973,37.4875966424239,126.727857330637
욱일수퍼,인천 부평구 경인로 1144,37.4846285068883,126.746720744739
주공로또,인천 서구 원적로 105,37.4959182181851,126.682907825667
솔드아웃(용현점),인천 미추홀구 독배로 390-1,37.4545166818724,126.649164649307
행운복권편의점,인천 남동구 구월남로 286-2,37.4519930235323,126.721278704048
로또복권방,"인천 연수구 인천타워대로 323, 상가동 D107호",37.3995231669444,126.629572683174
행운복권방,서울 서대문구 신촌로 235-1,37.5574090991053,126.952293916565
노다지슈퍼,"경기 부천시 소향로 195, 107호",37.5014858121743,126.769444872141
로또명당 상동점,"경기 부천시 송내대로265번길 17, 108호",37.5068781582565,126.757969136347
스파편의점,경기 부천시 부흥로 469-1,37.4858902108521,126.791144676059
춘성수퍼,"경기 부천시 경인로 101, 호암프라자 104호",37.4843329236213,126.76673652595
일산복권,"경기 고양시 일산서구 중앙로 1493, 애비뉴 상가 1090호",37.6725441503777,126.75400628186
대박천하복권방,서울 은평구 연서로 150,37.612218333016,126.917667719799
천하명당(신사),서울 은평구 은평로 51,37.5987765175333,126.913456457034
프렌즈,경기 고양시 덕양구 원당로 87,37.6601244628573,126.836312163639
현대25시,경기 고양시 덕양구 지도로 75,37.6239080957433,126.824232802551
우리복권방,경기 김포시 김포대로 1421,37.6515625553354,126.672612172144
요술상자,경기 평택시 평택3로 109,36.9984261403983,127.093851700797
천하명당,경기 평택시 탄현로 224,37.072590132845,127.055155022418
부자되세요복권방,"경기 평택시 진위서로 3, 2호",37.10964116131,127.063785480311
신바람복권마트,경기 평택시 평택3로56번길 28-8,36.9934284476262,127.095344109808
천하명당,경기 평택시 세교상가1길 68,36.9994918610174,127.081779172677
해피타임,경기 평택시 오성면 서동대로 2044,37.0068694137433,126.969583274949
좋은이웃들,경기 군포시 산본천로199번길 42-4,37.3719003184375,126.938300528346
천하으뜸편의점,"경기 안산시 단원구 원선로북길 39, 8동 5호",37.3347326346319,126.801477453346
천하명당,경기 안산시 상록구 충장로 590,37.3305624406964,126.851310389688
복권슈퍼,경기 안산시 단원구지곡로 111,37.3395246216734,126.79552371261
노다지복권방,경기 광명시 범안로 1043,37.4623271177948,126.878653259635
로또명당,경기 광명시 도덕로 27,37.4684135721142,126.851034285035
슈퍼복권방,경기 시흥시 동서로 1070,37.3843490862133,126.860032780851
행운복권방,"경기 시흥시 비둘기공원7길 45, B동 114호",37.4420211313698,126.79212672705
황금복권방(안양점),경기 안양시 만안구 장내로 79,37.3949128940113,126.917436092149
천하명당복권방,경기 안양시 만안구 덕천로 108,37.3907208235419,126.934130474683
복권마을(호계점),경기 안양시 동안구 흥안대로133번길 4,37.3710897856367,126.959679256466
제이마트,경기 안양시 만안구 안양로 145-1,37.3873404291854,126.930617549772
매화정보통신,경기 시흥시 매화1로 3,37.4156134937574,126.814751667402
도일복권방,경기 시흥시 도일로 111,37.3404460573782,126.783642763986
한아름복권방(매탄점),경기 수원시 영통구 권선로 808,37.2553129758229,127.038671030676
행운복권,경기 수원시 권선구 권선로 774-1,37.2565871908306,127.035641641539
코끼리복권방,경기 수원시 팔달구 매산로 17,37.2676136091561,127.003333981607
복권나라,경기 수원시 장안구 장안로 288,37.3073855553469,126.990337282378
매향수퍼,경기 수원시 팔달구 창룡대로 42-1,37.282676101209,127.021042707246
명당골복권방,경기 수원시 권선구 동수원로242번길 15,37.2510979892754,127.035486437565
밀리언복권방,"경기 수원시 권선구 장다리로 37, 49호",37.2540654672035,127.018614064423
천하명당,서울 금천구 시흥대로 90,37.4421106539978,126.903944207738
행운복권,대구 남구 대봉로 88,35.8465358944723,128.604238465402
복권명당,대구 북구 산격로 53,35.8953778117732,128.605084666078
천하명당복권,대구 북구 대현로 96,35.8823226488949,128.609528449754
노다지복권방,대구 북구 칠곡중앙대로 512,35.9411022081722,128.550616761039
영화마을흥해점,경북 포항시 북구 흥해로 26,36.1078443020151,129.345079987008
운수대통,경북 포항시 북구 삼호로 338,36.0661736739297,129.385813026949
영화유통,경북 포항시 북구 양학천로 15,36.0237320718825,129.353914672823
LOTTO동일설비,경북 안동시 경동로 913,36.5569159353056,128.75537298821
동산슈퍼,대구 중구 달구벌대로 2039,35.8666110928607,128.586683527024
복권명당,대구 달서구 구마로 138,35.8370662653975,128.542730080089
로또명당(케비),대구 달서구 월곡로 136,35.8092389906763,128.548260227535
대한 S.P,대구 달서구 학산로 215,35.8339621772506,128.549982058019
서재강변로또,대구 달성군 다사읍서재로 172,35.8786604420863,128.496966192201
복권천국(수성),대구 수성구 수성로 263,35.8489775554451,128.612778514119
노다지복권방(금사점),부산 금정구 금사로 75,35.2195725195291,129.110987273485
대박복권방(반여점),부산 해운대구 재반로 209-1,35.1960207074147,129.130619585784
로또복권방(반여점),부산 해운대구 재반로 249,35.1995352657947,129.131212791038
세원로또복권방,부산 수영구 수영로725번길 53,35.1683250826956,129.116025416752
네잎클로버,부산 사상구 낙동대로 738,35.1271114750884,128.969259684365
부산쌀상회,부산 남구 우암로 238,35.1253538103453,129.070887418867
돈벼락맞는곳(토성),부산 서구 구덕로 194,35.1019402878652,129.020050789229
로또(구포),부산 북구 덕천2길 23-3,35.2092450080923,129.006541323501
재벌마트,부산 중구 구덕로 1,35.0976076467616,129.035415619582
제일복권,부산 서구 충무대로255번길 9,35.0930541909753,129.023262189766
대원슈퍼마켓,부산 수영구 수영로 524,35.1524683974026,129.111990179
행운플러스,부산 사상구 괘감로 97,35.1573072700418,128.985376773692
경일통신,경남 창원시 마산회원구 북성로 340,35.233816775822,128.560605150507
채널큐24시(산호점),경남 창원시 마산합포구 산호남로 11-1,35.2175258585121,128.581426986506
폭스일레븐(서성점),경남 창원시 마산회원구 315대로 636,35.2297605282878,128.576836751254
로또복권하대점,경남 진주시 도동로 188,35.1870319488858,128.122449432222
행복마트복권,경남 진주시 대밭골로 79,35.1819649446118,128.151840947219
그린복권방,울산 북구 상방로 88,35.5894461611815,129.365809357324
로또25시,"울산 남구 대암로 14, 111호",35.5304467911949,129.317566109754
일등복권방(언양),울산 울주군 동문길 84,35.5641706135616,129.124604457949
씨엔마트(병영),울산 중구 곽남4길 2,35.5701749752284,129.340376503447
씨엔복권,울산 중구 염포로 34,35.5598998098836,129.345182417035
미보라,울산 중구 염포로 15,35.5593691650569,129.343237794894
행운복권방(남창),울산 울주군 온양읍 연안1길 3,35.4093754271279,129.282077664685
신라슈퍼,경남 김해시 진영읍 진영로 215,35.3027552270968,128.736480999504
슈팅복권마트,울산 동구 대송로 69,35.5019685134975,129.424737405651
선빌리지(신정점),울산 남구 중앙로 294,35.5468307762831,129.309695883972
로또명당,경남 창원시 마산합포구 문화동13길 17,35.1814153632579,128.559696788937
일흥,경남 창원시 마산합포구 해안대로 299,35.1997951931269,128.573841175592
MONEY(편의점),경남 김해시 삼문로 25,35.1929432648905,128.803302136934
필복권방,"대전 서구 관저북로 52, 상가 지하 101호",36.3049772035199,127.338645340786
대박복권방(갈마),대전 서구 갈마로 56,36.3473776801569,127.369235645268
월드복권,대전 서구 계백로 1272,36.3072361753092,127.364339425581
복권왕국(내동),대전 서구 동서대로1047번길 2,36.3308735920233,127.377864332473
대광광고사,대전 유성구 구즉로 54,36.4338472573915,127.385054214087
대박찬스(가경점),충북 청주시 흥덕구 가경로161번길 3,36.6289872301065,127.436471677705
부광로또토토,충북 청주시 서원구 창신로25번길 7,36.6331047839497,127.464031418385
"해적책대여점, 복권방",충북 청주시 서원구 대원로 28,36.6399768224324,127.479363506954
행운을주는사람들(금왕),충북 음성군 금왕읍 무극리 99-10,36.99230915566,127.597827575535
꽃돼지복권방,대전 동구 계족로 194-1,36.3308528068647,127.441797953734
천하명당복권방(홍성),충남 홍성군 조양로 180,36.6007306064042,126.669480865526
진플러스,대전 중구 대종로 301-1,36.3128046450746,127.435044952743
로또뱅크,"충남 공주시 공주대학로 95,1호",36.4734497682,127.137455656239
신방복권,충남 천안시 동남구신촌로 19,36.7887071870744,127.121573587162
대박마트,"충남 천안시 동남구봉서8길 13, 상가동 103호",36.811348418518,127.133365809332
영웅기획,광주 남구 독립로 77,35.1405446232748,126.902010736022
예쓰로또복권,광주 남구 대남대로 51,35.1360726299272,126.918878981409
알리바이,전남 나주시 나주로 141,35.0312657782631,126.716903646992
자수정슈퍼,전북 전주시 완산구 용머리로 152,35.8057843611694,127.126913347011
대박복권방,전북 전주시 완산구 전주천서로 145,35.8113629689857,127.145693050946
비사별쇼핑,전북 김제시 도작로 93,35.8020617480078,126.900084498216
대박찬스,전북 군산시 칠성로 164,35.9693872208476,126.679320877619
부자복권방,전북 군산시 구시장로 4,35.9804838040611,126.720224677787
천하명당,전북 군산시 동아로 142,35.9676213520929,126.684355237426
돈나무복권,전북 군산시 공단대로 612,35.9731729243729,126.680293319284
버블샵카페 고래의 꿈,광주 광산구 목련로273번길 88,35.1780132562859,126.824943605373
조례로또복권방,전남 순천시 봉화2길 58,34.9583927174364,127.518113767037
복권천지,전남 여수시 흥국로 79,34.7619521647103,127.671159098514
용두천하,광주 북구 하서로 373,35.2083575537211,126.873485368774
돼지의꿈,광주 북구 경열로 212,35.1581943118038,126.906293391388
복권마트,광주 북구 북문대로 89,35.1780043926297,126.876831237067
황금복권,광주 북구 서하로 359,35.1867065470972,126.919929589534
대박복권방,전북 전주시 덕진구 건산로 252,35.8346759743235,127.164717502467
금암복권방,"전북 전주시 덕진구 조경단로 39, 동편1층",35.8378998381884,127.137576675781
오렌지25편의점,"경기 고양시 일산동구 무궁화로 42-28, 107호",37.6622311622794,126.769746625319
럭키뱅크,대전 동구 계족로 491,36.3556726997876,127.432528189628
터미널수퍼,충북 청주시 흥덕구 풍년로150번길 10-2,36.625883439133,127.433763968248
글사랑,서울 광진구 천호대로112길 10,37.5557577545413,127.081335533536
노다지노원역점,서울 노원구 상계로 78,37.6562275670719,127.063748675774
희망을주는사람,경기 용인시 처인구 양지면 양지로 111,37.2346415225361,127.280569303833
복권명가,강원 동해시 송정로 47-1,37.4973113489147,129.124957617541
로토피아,경기 광명시 오리로 371,37.4356065752232,126.879269963217
개미식품,서울 동작구 노량진로 110,37.5131853341731,126.938038724901
영진텔레콤,서울 용산구 회나무로 21,37.5392205735752,126.989007364968
미래로또,"서울 중구 을지로 58, 을지로입구역 5번출구 지하상가 92호",37.5661185760891,126.983988779154
대박찬스,서울 송파구 백제고분로27길 34,37.5059986401875,127.093930696035
대박드림,서울 종로구 숭인동길 35,37.5766069418164,127.021817505815
코사24편의점(나들가게),"경기 고양시 일산서구 일산로 502, 분산상가동 105,106호",37.6761720602473,126.771956846207
굳프렌즈 일산현대-24시편의점,경기 고양시 일산서구 일청로 40-1,37.6874908897947,126.772258459504
부현제일명당,"경기 시흥시 정왕시장길 26-1, 102호",37.3435799541125,126.746917504491
로또복권방,경기 수원시 권선구 세권로 38-1,37.2593776376853,127.008596141085
창미슈퍼,"경기 화성시 향남읍 서해로 434, 102호",37.1010192021396,126.902091473206
복권광장,인천 부평구 백범로 500,37.4701975256266,126.696436443836
복권나라(복슈퍼),인천 계양구 계산로108번길 4,37.5372136485071,126.724099796406
흥부네 박터졌네,인천 계양구 계산로111번길 8,37.5380571438193,126.724632212086
무지개잉크,인천 남동구 남동대로733번길 3,37.4478213538933,126.707051674132
복권천국,인천 미추홀구 독정이로 71,37.4619274711578,126.651692003573
복권명당(13번도로),대구 동구 효동로 45,35.8814306167009,128.646196823416
복권명당도량2호점,경북 구미시 문장로8길 1,36.1380230498598,128.332461846576
승주복권방,경북 문경시 중앙로 79-1,36.592795456757,128.197066949932
복권세상,대구 서구 서대구로 300,35.8844815997247,128.557078775061
로또(칠곡구암시장점),대구 북구 태암로 56,35.9280604015194,128.553896195823
로또복권,부산 사하구 낙동대로 327-1,35.1000422067842,128.981182250264
삼삼마트,경남 진주시 진주대로 1165-1,35.1951447409086,128.075664891089
Win 게임복권방,경남 창원시 성산구 용지로111번길 2,35.2256239779131,128.678274693001
복권방,대전 동구 대전로 799,36.3307855532474,127.432541164625
베팅샵(양파),대전 동구 계족로 429,36.3501391343857,127.431681886475
현대LOTTO복권,대전 중구 계백로 1570,36.3174793305341,127.394638140324
로또복권방(분평),충북 청주시 서원구 월평로 78,36.6111862024375,127.493548830681
대박행운복권방,충남 아산시 온천대로 104,36.7463330298774,126.86686793761
그린베팅샵,충남 천안시 서북구 오성로 44,36.8302679089083,127.13216681789
영화마을(버들점),광주 서구 상무버들로 32,35.1646302656814,126.860013256913
알리바이 장덕직,광주 광산구 하남대로 95,35.1804823030306,126.803749988439
천하명당,전남 여수시 망마로 107,34.7572010336855,127.674023252114
복권천국,전남 여수시 선소로 62,34.7581349286118,127.667403362009
굿모닝,전남 순천시 중앙로 220,34.9652353156288,127.484986499414
금전산복권방,전남 순천시 연향1로 17-1,34.9450296794269,127.516340373323
황금밭,전북 전주시 덕진구 안덕원로 250,35.8362815227614,127.154220852202
복조리복권방,전북 장수군 장계천변길 55-4,35.7310741390472,127.583548482256
혜성프라자,전북 익산시 함열읍 함열중앙로 10,36.078945327191,126.958522872772
행복복권나라,전북 익산시 인북로 206-8,35.9466951199002,126.956648499792
삼창복권방,전북 군산시 조촌로 115,35.974352013416,126.737299600428
빙고복권방,제주 제주시 남녕로 36 102호,33.490920765201,126.480866187165
단관중앙점,강원 원주시 단관길 102,37.3207015380393,127.957835168836
원주무실대로점,"강원 원주시 시청로 84, 103호",37.3363821562604,127.928072254541
부평5동점,인천 부평구 부평문화로 131,37.4942691686972,126.730905522361
진도중앙점,전남 진도군 진도읍 남문길 30,34.4807593429862,126.263876940417
서귀포송산점,제주 서귀포시 태평로 414,33.2446502070502,126.564543328426
대치한국점,서울 강남구 선릉로86길 7,37.5032959457801,127.05031261589
독산우시장점,"서울 금천구 범안로 1206, 101호",37.466341152711,126.895771930858
음성점,충북 음성군 음성읍 문화길 4,36.9369181582526,127.692231297996
대원복권방,서울 광진구 답십리로 382,37.5713112997234,127.082877665558
거진터미널매점,강원 고성군 거진읍 거진길 21-14,38.4463565694357,128.453442751215
양평복권나라,경기 양평군 양근로190번길 2,37.4896125027548,127.490225610539
복권나라,경기 포천시 죽엽산로35번길 1,37.8267398343763,127.15268359735
왕대박복권방,"경기 남양주시 마석로61번길 18-29, 103호",37.6575169251271,127.304416048122
현대수퍼,서울 중랑구 봉우재로 203-1,37.5947921637057,127.095304059338
삐삐문구,경기 남양주시 사릉로 403,37.6560772606721,127.179775973153
펜시코아,경기 남양주시 퇴계원로 48,37.6509740519626,127.142176639613
스타복권편의점,경기 남양주시 덕송2로6번길 28-13,37.6659192729577,127.117256336827
로또복권방,경기 용인시 처인구 백옥대로 1153,37.2386380374084,127.208669676061
슈퍼전자,서울 강북구 솔샘로 254,37.6193297017502,127.020743950051
미니슈퍼,경기 의정부시 시민로 269,37.7365200191901,127.06474047624
대지사,서울 성동구 왕십리로 362,37.5643455824282,127.030315957145
복권세계,서울 구로구 우마길 6,37.4822146653722,126.887492686129
복권나라,서울 관악구 남부순환로 1739-9,37.4828013647636,126.943500830574
행복만들기,서울 관악구 신사로10길 6,37.4872572634811,126.914376423038
삼원미니슈퍼,서울 동작구 상도로 93,37.5001237923409,126.930835747931
복권세계,서울 동작구 신대방길 8,37.4879242988106,126.912193044847
복권명가,서울 관악구 관악로24길 70,37.4857254304759,126.957540441619
바로정보,서울 양천구 공항대로 562,37.5491613766197,126.86760216879
행운을드리는복권방,경기 안산시 상록구 본오로 98,37.2937972408073,126.866708583471
로또복권방,경기 의왕시 효행로 42,37.3512017486621,126.973272983806
행운로또,"경기 안산시 상록구 광덕1로 354, 114호",37.3066378888816,126.849274446481
아주명당복권방,경기 시흥시 정왕신길로 141,37.3532559727479,126.734614943384
명당일세,경기 평택시 평택로 80,36.9940638111137,127.084885743015
필그림,경기 안양시 동안구 흥안대로 305,37.3818405748327,126.971559514743
드림복권,인천 미추홀구 낙섬중로91번길 4-14,37.4561388639188,126.640769071749
가정수퍼,인천 미추홀구 숙골로43번길 158-19,37.4671202402635,126.657081150409
따봉복권방,인천 부평구 주부토로 109,37.5049079453123,126.725345056445
복권왕국,경기 부천시 조마루로105번길 34-7,37.5017196238414,126.756294159181
로일당,대구 남구 대봉로 160-1,35.8530834742389,128.60300656386
스타마트,경북 구미시 임은길 15,36.0875208993373,128.364593947857
불국사명당복권,경북 경주시 산업로 3033,35.7765090145288,129.298152168717
로또복권,경북 포항시 북구 양학로32번길 3,36.0266437630745,129.350666925941
천하명당,"경북 안동시 태화중앙로 101, 102호",36.5613950231319,128.713627676713
신암편의점,부산 금정구 중앙대로 2002,35.2628854022221,129.092236463487
복권명당(반송),부산 해운대구 아랫반송로 11,35.2256091324493,129.147340778002
오렌지데이(가야점),"부산 부산진구 가야대로 597, 104호",35.1551481825055,129.036999074696
진마트,울산 동구 미포1길 38,35.5410198342367,129.42837989342
복권프라자,울산 중구 백양로 20,35.575162258243,129.308621027916
로또행운마트,경남 김해시 능동로 177,35.2037837311904,128.810011432096
AM&PM,경남 김해시 가락로 43,35.2303584577796,128.881878271132
채널큐24시(회원점),경남 창원시 마산회원구 315대로 504,35.2192051563814,128.574872391774
위드미마산홍문점,경남 창원시 마산합포구 문화남11길 12,35.1840377804761,128.559243470538
복권방,충북 청주시 서원구 수곡로 83,36.6192020177172,127.471318092181
로또복권,충북 청주시 상당구 중고개로 344,36.6307680364326,127.502750700334
제우스테크,"대전 서구 원도안로 30, 102호",36.3067795318688,127.348659405269
드림통신,"충남 아산시 염치읍 충무로 230, 1동 102호",36.8011696491832,127.007696746355
타임마트,대전 중구 중앙로 65,36.3244915022795,127.418866990288
(sk)대박상회,"전북 전주시 완산구 홍산1길 7, SK상가 161호",35.8141205792576,127.108506555137
아스타,광주 서구 상무대로 917,35.1513635268422,126.862218712492
노다지복권방백운점,"광주 남구 서문대로 827, 상가동 107호",35.132880595537,126.900119663572
오천억복권방,광주 서구 상무대로 1087,35.1530093775319,126.880710968618
해피-존복권방,제주 제주시 신대로 20길 22,33.4837772163006,126.494063555661
월드복권방,전북 익산시 서동로 59,35.9324343176543,126.958470327282
복돼지복권방,"전북 익산시 선화로1길 4, 107호",35.950267495601,126.938034324236
프레야복권방,서울 중구 다산로36길 21,37.5624893820605,127.016527242328
행복미니슈퍼,경기 부천시 부일로 409,37.487129319857,126.775639441845
로또복권판매점,경기 안산시 상록구 구룡로 14,37.3115868680225,126.867457805783
현대화체인점,경기 수원시 장안구 장안로 99-1,37.2928573570861,127.001315677708
우희건설,경기 수원시 장안구 경수대로939번길 16,37.3021155044074,127.006811547683
천하명당복권,대구 북구 칠곡중앙대로 545,35.9443081130851,128.550664555604
C&S편의점(송현점),대구 달서구 월배로 340,35.8252872566346,128.548188948895
송정25시,경북 구미시 신시로10길 98-4,36.1151353511475,128.349015479018
하프타임대박점,부산 사하구 다대로 249,35.0548678672716,128.970555777716
사하슈퍼,부산 사하구 낙동대로 256-1,35.099402132468,128.988954462869
행운복권방(가야),부산 부산진구 냉정로 273,35.1512611556711,129.029705595587
복권나라(연지),부산 부산진구 성지로 70,35.1769281234809,129.054506958623
영24시,울산 동구 월봉로 60,35.4939653787652,129.424547681818
북정동원마트,경남 양산시 북정중앙로 30,35.3613473500797,129.047811784673
로또방,경남 창원시 마산회원구 석전동로 1,35.2311877607815,128.576391077324
오도르캔들,경남 창원시 의창구 명지로 63번길 2,35.2504157344782,128.646047951525
복권명당,경남 창원시 마산회원구 팔용로 249,35.2486837699455,128.598132500874
드림로또,대전 중구 대둔산로 365-2,36.3020609545416,127.38588223995
로또복권방(성정),충남 천안시 서북구 쌍용대로 190,36.8142537292124,127.134926754486
천하명당,충남 천안시 서북구 백석로 202,36.8188604913422,127.132019094247
로또행운방,전북 전주시 완산구 서곡1길 1-5,35.8343668681512,127.100490232746
당첨복권방,광주 북구 안산로 30,35.1898315718016,126.902170645096
길벗,광주 북구 송월로 26,35.1860286722589,126.913302755552
동키호테편의점,광주 서구 풍금로38번길 23,35.1239463028148,126.864741574859
에이데이마트,전남 목포시 백년대로375번길 42,34.8105554146769,126.425608513449
풍년농약사,전남 강진군 강진읍 보은로4길 2,34.6385319057895,126.774135357955
황금복권,제주 제주시 서광로 171,33.5002496144059,126.514721990879
복권마을,"서울 강서구 화곡로 321, 1동 101호",37.5529285304187,126.850251153324
복권천국,서울 강서구 방화대로33길 66,37.56825895546,126.812965835724
노다지복권방,서울 양천구 월정로 137,37.5311741321708,126.837469383438
토토복권방(화명),부산 북구 금곡대로306번길 5-1,35.2356376490886,129.014324650081
대박복권방,경기 고양시 덕양구 통일로 797,37.6885523548771,126.86197964183
세희 사랑방,"경기 남양주시 경춘로1350번길 35, 110호",37.6503401497521,127.243298419924
복권왕국,충북 제천시 풍양로 108,37.1366900651691,128.211317199501
남산로또복권방,강원 홍천군 홍천읍 연봉중앙로 28,37.6816368081803,127.87562039298
로또한마당,강원 철원군 명성로 172,38.1469805502727,127.308100314948
지원물산,서울 노원구 공릉로 108,37.6198325602606,127.078126207313
스타복권판매점,"강원 춘천시 방송길 104, 104호",37.8675324782385,127.720839253747
고대잉크복권방,서울 동대문구 이문로 76,37.5938004673372,127.058657607147
하임마트,서울 중구 퇴계로 439-4,37.5659171786499,127.02079466631
우리마트,서울 중구 창경궁로 11,37.5631987082613,126.998192434216
샛별복권방,서울 중구 동호로10길 12,37.5544298854585,127.01193170499
태극로또전문점,경기 이천시 애련정로 124-2,37.2814910702821,127.450301616688
장원급제로또방,경기 이천시 장호원읍 장여로15번길 2,37.1192513573781,127.632335149678
복권세상,경기 여주시 우암로 21-1,37.2968804119524,127.633105588725
로또휴게실,"경기 용인시 기흥구 용구대로 1885, 1호",37.2564421961903,127.104288530612
히딩크복권방,서울 광진구 자양로13길 62 101호,37.5338986164114,127.081205436048
우성슈퍼,서울 강동구 구천면로 371,37.5506975616259,127.139760984399
동원마트,서울 강동구 풍성로 209,37.5293607424181,127.135101909071
로또복권,서울 광진구 긴고랑로 38,37.5628285297463,127.080249404946
아트플라워,경기 용인시 처인구 백옥대로 1109,37.2346614990073,127.208696805591
대성수퍼,서울 강남구 밤고개로 36길 6,37.4632303532064,127.107313539805
현대수퍼,"서울 강남구 개포로 508, 107호",37.4892333041022,127.067955632075
뮤직프라자,서울 관악구 신림로 266,37.4788188912085,126.932328416894
커피다,서울 용산구 후암로 81,37.5530603722744,126.97618716103
나인,서울 종로구 종로10길 20,37.5691420895937,126.984301453169
드림샵,경기 고양시 일산서구 고양대로 703,37.6837090291027,126.774171992945
현대25시,경기 고양시 일산서구 경의로 862,37.6943891417958,126.759917173996
세민복권방,경기 부천시 중동로 147,37.4929404633421,126.766670634079
찬스복권방,인천 부평구 육동로 20-1,37.4871481880146,126.725122552612
평화슈퍼,서울 은평구 연서로 198-1,37.6163038958849,126.919014472678
코사마트한양점,경기 고양시 덕양구 마상로 156,37.6584532907179,126.839567253705
학림문구,서울 동작구 노량진로 228,37.5124706743392,126.951352176844
고경식품,서울 구로구 경인로 381,37.4968203905367,126.862493861274
동신복권방,서울 양천구 중앙로 288,37.521932097607,126.852346956783
본동서적,서울 금천구 금하로 631-7,37.455143719434,126.901203485884
해태24시,서울 양천구 곰달래로 11,37.5299151109628,126.833933829169
심봤다복권방,경기 오산시 청학로 11,37.150497929262,127.061601421096
로또명당,경기 시흥시 신현로 21-1,37.4070693478946,126.787103779067
나눔로또한대점,경기 안산시 상록구 중보로 57,37.3081120642399,126.852848213793
포유 25 다농점,경기 오산시 운천로 80-5,37.1497097989907,127.075428711248
주택복권방(호계점),경기 안양시 동안구 흥안대로145번길 77,37.3741296901262,126.958192876557
금강식품,서울 강서구 강서로 207,37.5443743879828,126.837392186235
천하명당복권방,경기 수원시 팔달구 매산로 2,37.2666421379776,127.00188252772
하나유통,경북 경산시 공단2로 7,35.8717448385214,128.819963415568
복권명당(영남점),대구 달서구 월배로 122,35.8147939598509,128.52768630948
행운복권방(영천점),경북 영천시 호국로 55-3,35.973491374682,128.943845479975
행운복권방,대구 서구 달서로 166,35.8771379593331,128.571553133574
화성전기,대구 달성군 화원읍 비슬로 2573,35.8036639460542,128.498250912245
홈런복권방,경북 영덕군 남석길 57,36.4090827572645,129.368251626366
다다복권방,대구 달서구 월배로 32-1,35.8124821996741,128.518571336467
복권나라,대구 수성구 수성로 3,35.825764564185,128.609884793998
로또복권방,대구 달성군 화원읍 명천로 194,35.8003878202352,128.497334737026
편마트,"대구 달서구 상인서로 103-5, 8호",35.8181046524893,128.539837411822
원화복권샵,대구 남구 명덕로 74,35.8579088547782,128.578569260107
코리아마트(평리점),대구 서구 서대구로 183-1,35.8744684056339,128.554582316387
코리아마트,경북 구미시 임은길 64,36.0889477802807,128.369560646292
CNS송현점,대구 달서구 월배로 393,35.8298187949825,128.550349521241
복권뱅크,대구 서구 문화로 259,35.8758376315776,128.560930700065
복권명당(밤고개네거리),대구 서구 달서로 2,35.8625828752805,128.572100286913
디딤돌,대구 달서구 월곡로45길 110,35.8110229331703,128.537786695372
복권명당,대구 동구 반야월로 154,35.87253582887,128.705217195884
노다지구미황상,경북 구미시 수출대로 555,36.1108944928709,128.425724189764
천하명당황성점,경북 경주시 유림로 60,35.8695377905525,129.217178368663
위드미 부산부곡점,부산 금정구 동현로 28,35.2230142746673,129.091635399211
스카이,부산 부산진구 백양산로 55,35.173808738406,129.03079023804
노다지복권방,부산 북구 덕천로 287,35.2098591452735,129.035350064955
오로,경남 창원시 마산합포구 3·15대로 391-1,35.2096158787373,128.574445244379
신세계 수퍼,경남 창원시 마산회원구 구암북4길 46,35.2523854418452,128.593584585521
포시즌편의점,경남 김해시 내외중앙로 99,35.2388454405156,128.867004919715
돈벼락맞는곳,경남 김해시 김해대로 2793,35.2221945336071,128.928343545807
오창중앙복권,충북 청주시 청원구 오창읍 중심상업로 47,36.7150765562734,127.428954460961
행복을주는집,충남 예산군 덕산면 예덕로 13-1,36.7053283357409,126.66927468936
행운마트,"충남 아산시 서해로 654, 103호",36.8819314690927,126.910729910912
영신슈퍼,충북 청주시 서원구 청남로 2119-1,36.6212568658454,127.487445143803
복권나라,충남 홍성군 아문길 57,36.6004004779269,126.66459547425
대산슈퍼,충남 천안시 동남구 복구정3길 1,36.7699366210473,127.250220402203
행운의명당 로-토토,충북 청주시 서원구 모충로 36,36.6250836414444,127.468040901111
버드내마트,대전 중구 유천로 78,36.3194953689124,127.397274049132
노다지복권방,"대전 서구 조달청길 62, 1호",36.3191360064813,127.375290174544
태양슈퍼,충남 당진시 합덕읍 운산리 286,36.8043007385209,126.766999625445
태양마트,"대전 유성구 노은로 157, 106호",36.3737065349545,127.317372593405
포커스,충북 청주시 흥덕구 직지대로 564,36.6430843118183,127.455562398538
로또복권(내수),충북 청주시 청원구 내수읍 내수로 725,36.7263769746482,127.535582449251
현대복권방,충북 청주시 청원구 향군로 140-1,36.65684131362,127.480035755273
로또스튜디오,충북 청주시 청원구 사뜸로 48-1,36.6665273574428,127.481478010017
심마니대박복권방,충북 충주시 국원대로 68,36.9774588336845,127.9278851429
돌하르방복권,제주 서귀포시 태평로353번길 9,33.246992274706,126.559955407653
열린서점,전남 목포시 삼각로43번길 10,34.8046197662753,126.418311836687
대박나라,광주 광산구 월곡산정로 7,35.1668074875248,126.802981224217
장고분로또(토토편의방),광주 광산구 월계로 144,35.2132952427885,126.841131241106
로또팡팡 토토팡팡,전북 군산시 지곡로 30,35.9567227209306,126.710601055421
고인돌대박천국복권방,전북 고창군 고창읍 성산2길 7,35.436119159457,126.696378496431
두꺼비복권방,"광주 서구 상무대로 973, 101호",35.1517904794011,126.868526860932
대광복권방,전남 화순군 화순읍 칠충로 53,35.0556712740011,126.977284072331
복권나라 동성점,전남 순천시 연향번영길 94,34.9496505359864,127.518470820555
팡팡로또복권방,전북 전주시 덕진구 건산로 163,35.8335490186351,127.155186534991
백송마트,"광주 광산구 월계로 110, 104호",35.2134818461845,126.837414810466
황금노다지복권방,전북 전주시 완산구 용머리로 76,35.8062769895521,127.118435615734
로또복권위드미완주공단점,전북 완주군 봉동읍 과학로 1009,35.9590739148025,127.126015025873
정든마트복권,제주 제주시 정존11길 68,33.490410921114,126.472413795248
복권세상,전남 목포시 영산로270번길 2,34.8037837472222,126.395530013633
거기마트,전남 여수시 좌수영로 440,34.7669799277775,127.701798432022
로또나라,전남 해남군 해남읍 남부순환로 86,34.5660853878934,126.602328438685
복권나라,광주 북구 동문대로134번길 5,35.1747272416847,126.927048303182
구례로또,전남 구례군 구례읍 로터리길 2-1,35.2087135108573,127.464785979601
종합복권방,전남 해남군 해남읍 해남로 34,34.5708118929938,126.610855130658
꽃샘수퍼,전북 전주시 완산구 팔달로 130,35.8142619519652,127.148648507488
하동로또명당,경남 하동군 하동읍 중앙로 26,35.0704567743779,127.749767162056
경진수퍼,서울 송파구 새말로8길 32,37.4799896961192,127.126679477707
복권나라음악나라,서울 도봉구 도봉로156길 8,37.6726473076334,127.04475816055
노다지복권방,강원 춘천시 남춘로55번길 57,37.8663433130982,127.731868952471
현리행운복권방,경기 가평군 조종희망로 14,37.8181859570151,127.350246442964
복권세상,강원 원주시 예술관길 3,37.334255979056,127.943946923683
베스트원대웅점,경기 의정부시 범골로 146,37.7357411792168,127.04167926684
광동서점,경기 의정부시 서부로 693,37.7549279460689,127.037627454913
장보고복권방,서울 중랑구 면목로 288,37.578383961298,127.086224575115
은혜,서울 중랑구 면목로91길 46,37.594102330111,127.083451429661
드림복권방,서울 성북구 장위로 115,37.6135391301988,127.049526009991
한성슈퍼,서울 중구 수표로 26,37.5634989049525,126.990409110289
홍익슈퍼,강원 강릉시 가작로 311,37.7713042186165,128.909292909206
롯데마트,서울 강동구 상일로 17,37.5486339615372,127.172995125763
후레쉬마트,서울 강동구 천호대로 1476,37.545946598089,127.172226224667
삼정그린환경,서울 강동구 양재대로 1355,37.5273952498819,127.135616051172
천하명당복권방,서울 송파구 백제고분로41길 7,37.5068174105631,127.108219513956
천하명당,서울 송파구 백제고분로40길 31,37.5020166910285,127.107907121544
진흥슈퍼,서울 강남구 논현로150길 31,37.5198382030717,127.030928356484
신성식품,서울 강남구 학동로 503,37.519180177066,127.050790458655
광림마트,서울 강남구 도곡로 213,37.493074807122,127.042103900522
뮤직마트,서울 서초구 강남대로 212,37.4831182461864,127.036028236967
대일슈퍼,"서울 성동구 고산자로 331, 7호",37.5691818035316,127.037130505973
정우,"경기 용인시 처인구 이동읍 백옥대로 574, C동 상가",37.1879436471083,127.206131479152
로또복권짱,"경기 용인시 처인구 백옥대로 1286, A동 103호",37.2496298938982,127.212806723828
혜빈복권방,경기 용인시 처인구 포곡읍 전대로 75,37.2847189924611,127.217620819985
대원문구슈퍼,경기 성남시 중원구 둔촌대로 244,37.4281018689342,127.145282152925
백사행운마트,경기 이천시 이여로 488,37.3356878792911,127.48675599218
일등복권방,경기 부천시 삼작로 481,37.5189170458333,126.815080503886
씨지랜드,경기 부천시 송내대로73번길 11,37.4901185447533,126.753421544372
인더라인25시,"경기 부천시 신흥로 170-1, 상가 6동 109호",37.4987979479786,126.778588350888
행운복권방,서울 서대문구 북아현로 40,37.561194879144,126.956170251417
행운복권방,서울 은평구 연서로21길 8,37.6146671713574,126.916827666441
복권명가,인천 남동구 장승로 13,37.4464761178067,126.734499940848
정다운복권,인천 부평구 충선로 171,37.5045407683506,126.736289358266
로또(복권방),인천 서구 신석로77번길 38,37.5132759714102,126.670868696676
복권천하,인천 계양구 임학동로 58,37.5469588796598,126.73747834563
로또명당복권방,인천 강화군 강화대로393번길 4,37.745329480162,126.487002028902
신일복권방,"서울 강서구 까치산로 177, 101호",37.5530558434856,126.853339524517
복권세상,서울 양천구 곰달래로5길 26,37.5319115765941,126.833698262468
무지개복권,경기 오산시 현충로 95,37.1607414331868,127.077699871446
로또복권방,경기 평택시 지산로37번길 76,37.0824009331714,127.059554612239
명당슈퍼,경기 수원시 영통구 중부대로 285,37.2740447654594,127.047056862492
다정토토,경기 안양시 만안구 양화로28번길 20,37.3969274764865,126.915128210778
행운의집,경기 안산시 상록구 선진4길 33,37.2802628020129,126.851104604149
각골할인마트,경기 안산시 상록구 각골로 37,37.2927340525467,126.872298072807
센타슈퍼,경기 안산시 상록구 광덕1로 369,37.3081362752093,126.85045474366
복권방,서울 구로구 도림로 55-1,37.4888067522605,126.890026257335
수마트,서울 금천구 가산로5길 77,37.4737365262586,126.890460635266
영광생활유통,서울 금천구 범안로 1186,37.4662597058058,126.89345328049
복권닷컴,경기 성남시 수정구 수정남로 64-1,37.4409273849505,127.134933944447
대박행진복권랜드,경기 파주시 금빛로 22,37.7516589858332,126.76694335458
성남은행점,경기 성남시 중원구 자혜로44번길 1,37.4504271132887,127.164599660589
용꿈복권,서울 중랑구 봉우재로71길 21,37.5960531739862,127.098722866992
우진음악사,서울 중랑구 상봉로 51,37.590508080159,127.093335250732
열린문구,서울 중랑구 용마산로 557,37.6006970374489,127.100246556563
내복권방,"서울 노원구 노원로1나길 5, 102호",37.6212544115832,127.082876326433
행복나눔안경 마들역점,"서울 노원구 동일로 1530, 103호",37.665066086443,127.058023631956
강원상회,"서울 노원구 한글비석로 396, 상가 109동 116호",37.6623030184626,127.073581746977
찬스복권방,서울 강북구 한천로 1156,37.6472270764538,127.016961970696
현경하이퍼마켓,서울 강북구 삼양로117길 25,37.6437308375321,127.014734463348
돼지슈퍼,서울 도봉구 삼양로 628,37.6591007780524,127.014143081848
영훈슈퍼복권,서울 도봉구 덕릉로 222,37.6378039469551,127.037625298928
파워마트,강원 춘천시 삭주로 126-1,37.8847885245712,127.744552340747
드림디포춘천석사점,강원 춘천시 퇴계로 213,37.8565894113141,127.742324964412
D마트담배,강원 속초시 조양상가길 25,38.190114896653,128.579991961658
노다지복권,강원 횡성군 문정로 52,37.4885074479694,127.988730637854
혁신에이치에스,경기 양평군 용문면 용문로 812,37.5073911989454,127.631745325985
88복권,강원 평창군 대화중앙로 117,37.4994053228192,128.455014622574
신흥인테리어,경기 의정부시 오목로205번길 36,37.7457434328349,127.097021209204
다우복권방,"경기 동두천시 중앙로 110-13, 104호",37.891392347584,127.05301810344
성명전력(행운복권방),경기 동두천시 큰시장로 43,37.9001917280239,127.052958355846
애니25,"경기 남양주시 호평로 94, 상가동 104호",37.6548004450404,127.250534525948
삼일통신,경기 구리시 동구릉로 112-1,37.609408868457,127.136313547365
훼미리수퍼,경기 구리시 건원대로 34번길 19,37.6045083103427,127.141358503339
남대문가판,서울 중구 퇴계로 37,37.5584466553632,126.97633371006
대박복권방(석관점),서울 성북구 한천로78길 23,37.6118410661159,127.063734099891
이엔에프하우스,서울 동대문구 천호대로 10,37.5747206417233,127.024462837927
노다지복권방,서울 성북구 화랑로13길 20,37.6043413280808,127.042495289653
행운마트(하월곡점),서울 성북구 종암로 174,37.6053788518989,127.031796231615
천하명당(정릉점),서울 성북구 정릉로 268,37.6033652893029,127.012936986372
하나로수퍼,서울 동대문구 고산자로 484,37.5827599595273,127.038843507076
토마토왕십리점,서울 성동구 마조로7길 15-1,37.5607140257854,127.039463044873
신형열쇠,경기 성남시 중원구 박석로5번길 17,37.4333287574119,127.164076019508
행운로또복권방,경기 광주시 중앙로 85,37.4074307813501,127.259390094059
코코블루,"경기 성남시 분당구 서현로210번길 20, 지하1층",37.3858574301594,127.12403697062
복권명당(수진점),경기 성남시 수정구 제일로124번길 5,37.4379292807615,127.133884251734
플러스마트,경기 성남시 중원구 광명로 33,37.4337204682247,127.132756913379
로또통신,경기 안성시 장기로 34,37.0059207546779,127.267378996412
로또판매점,경기 여주시 마장로 76,37.2988565241658,127.573765987408
황금대박 복권나라,경기 용인시 처인구 금령로85번길 16,37.2368153978135,127.205738073602
광성수퍼,경기 이천시 단월로 33,37.2212991430585,127.450059363554
대박25편의점,"서울 강남구 봉은사로74길 13, 101호",37.5116699286081,127.051878663467
파랑새식품,서울 강남구 논현로151길 23,37.5198040046736,127.026301641715
삼성식품,서울 강남구 삼성로86길 10,37.5056076618261,127.058331349866
그린슈퍼(길동),서울 강동구 천중로52길 15,37.5401194764202,127.144184755031
행운복권방,서울 관악구 난곡로 172,37.4704735668904,126.920079591183
헬스프라자,서울 관악구 관악로 184,37.4815212275092,126.95322725345
로또복권,서울 관악구 난곡로 82,37.4627368976892,126.919213738918
수공화원,서울 성동구 마장로 288,37.5652421894267,127.041999716513
토큰판매소,서울 송파구 바람드리길 62,37.5367003001398,127.122365863486
복권파티,서울 송파구 오금로 516,37.4928082771831,127.146155861134
매직복권방,서울 관악구 신림로68길 23,37.4867844317607,126.930609244482
만복래,인천 부평구 주부토로 20-2,37.4968404362789,126.724834965953
올리콜,인천 부평구 장제로190번길 3,37.5027129914595,126.731211560373
행운마트,인천 부평구 배곶남로9번길 4,37.4717949561033,126.695364631615
행운마트,인천 남동구 만수로 65,37.4615930687888,126.735091118519
경기하이퍼상회,인천 남동구 장승남로 42,37.4431636514412,126.736802569717
드림테크,"경기 부천시 안곡로 11, 107호",37.4790194857825,126.803647982476
후레쉬슈퍼,"경기 부천시 부천로 76, 101호",37.4909068362347,126.78447394191
디딤슈퍼,경기 부천시 도약로 279,37.5106466365954,126.780589593946
로또와공인중개사사무소,서울 은평구 갈현로 304,37.6239672234176,126.91716597275
드림정보통신,서울 은평구 서오릉로 160,37.6126825267479,126.915632831792
대성슈퍼,경기 김포시 사우중로11번길 7,37.616541564374,126.716166168743
갈현토큰,서울 은평구 통일로 905,37.6237703310391,126.919602322714
한삼인 홍제역점,서울 서대문구 통일로 457,37.5892089495076,126.94324160002
민영슈퍼,서울 서대문구 응암로 104,37.5817492508751,126.91302263905
제일복권 판매점,"서울 서대문구 응암로 79, 5호",37.5802546696289,126.911189682461
비원슈퍼,서울 종로구 돈화문로 66,37.5744231771637,126.99119548265
행운복권방,인천 서구 염곡로 343-4,37.515413926905,126.668506909276
윤미편의점,인천 서구 가정로 235,37.5058327717848,126.672023308174
해피데이로또복권,인천 계양구 경명대로 1037,37.5438319086671,126.722018921201
솔드아웃,인천 계양구 경명대로 1077,37.5436449865,126.72666531411
로또판매점,서울 마포구 방울내로 78,37.5604438229433,126.904115516357
장원사,서울 마포구 토정로 224,37.5445181419367,126.935564767369
천하명당,서울 금천구 독산로85길 16,37.4725320231091,126.902234890915
대박로또,서울 영등포구 영등포로53길 17,37.5198722433246,126.910644796252
복권명당,서울 영등포구 신길로 63,37.4982579220255,126.908016067029
왕대박,서울 영등포구 영등포로84길 12,37.5123183244038,126.921830473524
신정복권,"서울 양천구 신목로 70-1, 101호",37.5211300514313,126.873736856809
뉴신명,서울 양천구 목동중앙서로7가길 39,37.5333605692773,126.863968899075
행복한집,경기 오산시 경기대로148번길 8,37.1377821209271,127.074115360976
궐동로또복권방,경기 오산시 청학로 103,37.1581429769059,127.06428833985
가수로또복권,경기 오산시 발안로 1354,37.1411509161871,127.047170936729
복권명당,경기 평택시 이충로 86,37.0640386946473,127.066562867711
내추럴하우스 복권판매점,경기 평택시 중앙로 1,36.9957763900167,127.08364349679
진주행운복권방,경기 수원시 권선구 서호동로 36-1,37.2685474257291,126.992305546245
권선로또복권방,경기 수원시 권선구 탑동로 22,37.2708359445694,126.975051798506
세류보석복권방,경기 수원시 권선구 세지로 30,37.2548645490327,127.015891006402
행운넘버스복권외잡화,경기 수원시 팔달구 창룡대로 22,37.281700346815,127.019024443831
드림복권방,경기 수원시 권선구 정조로 515,37.2552707452088,127.0110966544
올인,경기 화성시 향남읍 3.1만세로 1147,37.1353247172474,126.910560606791
네잎크로바,"경기 안양시 동안구 엘에스로 92, 1동 102호",37.37161072301,126.951872629481
